{
   "type": "FeatureCollection",
   "features": [
  {
    "type": "Feature",
    "geometry": {
       "type": "Point",
       "coordinates":  [ -87.668835,41.956057 ]
    },
    "properties": {
    "ID":246,
    "Station Name":"Ashland Ave & Belle Plaine Ave",
    "Address":"Ashland Ave & Belle Plaine Ave",
    "Total Docks":11,
    "Docks in Service":11,
    "Status":"In Service",
    "Location":"(41.956057, -87.668835)"
    }
  },
  {
    "type": "Feature",
    "geometry": {
       "type": "Point",
       "coordinates":  [ -87.68452,42.019276 ]
    },
    "properties": {
    "ID":514,
    "Station Name":"Ridge Blvd & Howard St",
    "Address":"Ridge Blvd & Howard St",
    "Total Docks":11,
    "Docks in Service":11,
    "Status":"In Service",
    "Location":"(42.019276, -87.68452)"
    }
  },
  {
    "type": "Feature",
    "geometry": {
       "type": "Point",
       "coordinates":  [ -87.63219,41.867491 ]
    },
    "properties": {
    "ID":626,
    "Station Name":"Delano Ct & Roosevelt Rd",
    "Address":"Delano Ct & Roosevelt Rd",
    "Total Docks":19,
    "Docks in Service":18,
    "Status":"In Service",
    "Location":"(41.867491, -87.63219)"
    }
  },
  {
    "type": "Feature",
    "geometry": {
       "type": "Point",
       "coordinates":  [ -87.774446,41.887919 ]
    },
    "properties": {
    "ID":532,
    "Station Name":"Austin Blvd & Lake St",
    "Address":"Austin Blvd & Lake St",
    "Total Docks":11,
    "Docks in Service":10,
    "Status":"In Service",
    "Location":"(41.887919, -87.774446)"
    }
  },
  {
    "type": "Feature",
    "geometry": {
       "type": "Point",
       "coordinates":  [ -87.576450114,41.766638237 ]
    },
    "properties": {
    "ID":11,
    "Station Name":"Jeffery Blvd & 71st St",
    "Address":"Jeffery Blvd & 71st St",
    "Total Docks":11,
    "Docks in Service":11,
    "Status":"In Service",
    "Location":"(41.76663823695, -87.5764501141)"
    }
  },
  {
    "type": "Feature",
    "geometry": {
       "type": "Point",
       "coordinates":  [ -87.626938,41.841707 ]
    },
    "properties": {
    "ID":193,
    "Station Name":"State St & 29th St",
    "Address":"State St & 29th St",
    "Total Docks":15,
    "Docks in Service":15,
    "Status":"In Service",
    "Location":"(41.841707, -87.626938)"
    }
  },
  {
    "type": "Feature",
    "geometry": {
       "type": "Point",
       "coordinates":  [ -87.628195929,41.76929309 ]
    },
    "properties": {
    "ID":392,
    "Station Name":"Perry Ave & 69th St",
    "Address":"Perry Ave & 69th St",
    "Total Docks":11,
    "Docks in Service":11,
    "Status":"In Service",
    "Location":"(41.76929308995, -87.6281959291)"
    }
  },
  {
    "type": "Feature",
    "geometry": {
       "type": "Point",
       "coordinates":  [ -87.651073,41.858086 ]
    },
    "properties": {
    "ID":14,
    "Station Name":"Morgan St & 18th St",
    "Address":"962 W. 18th St",
    "Total Docks":15,
    "Docks in Service":14,
    "Status":"In Service",
    "Location":"(41.858086, -87.651073)"
    }
  },
  {
    "type": "Feature",
    "geometry": {
       "type": "Point",
       "coordinates":  [ -87.680687,42.041691 ]
    },
    "properties": {
    "ID":625,
    "Station Name":"Chicago Ave & Dempster St",
    "Address":"Chicago Ave & Dempster St",
    "Total Docks":15,
    "Docks in Service":15,
    "Status":"In Service",
    "Location":"(42.041691, -87.680687)"
    }
  },
  {
    "type": "Feature",
    "geometry": {
       "type": "Point",
       "coordinates":  [ -87.682017,41.895501 ]
    },
    "properties": {
    "ID":659,
    "Station Name":"Leavitt St & Chicago Ave",
    "Address":"Leavitt St & Chicago Ave",
    "Total Docks":11,
    "Docks in Service":10,
    "Status":"In Service",
    "Location":"(41.895501, -87.682017)"
    }
  },
  {
    "type": "Feature",
    "geometry": {
       "type": "Point",
       "coordinates":  [ -87.642746,41.880422 ]
    },
    "properties": {
    "ID":73,
    "Station Name":"Jefferson St & Monroe St",
    "Address":"207 S Jefferson St",
    "Total Docks":19,
    "Docks in Service":18,
    "Status":"In Service",
    "Location":"(41.880422, -87.642746)"
    }
  },
  {
    "type": "Feature",
    "geometry": {
       "type": "Point",
       "coordinates":  [ -87.625961,41.867227 ]
    },
    "properties": {
    "ID":59,
    "Station Name":"Wabash Ave & Roosevelt Rd",
    "Address":"1210 S Wabash Ave",
    "Total Docks":23,
    "Docks in Service":23,
    "Status":"In Service",
    "Location":"(41.867227, -87.625961)"
    }
  },
  {
    "type": "Feature",
    "geometry": {
       "type": "Point",
       "coordinates":  [ -87.62034,41.87647 ]
    },
    "properties": {
    "ID":2,
    "Station Name":"Buckingham Fountain",
    "Address":"Buckingham Fountain",
    "Total Docks":39,
    "Docks in Service":39,
    "Status":"In Service",
    "Location":"(41.87647, -87.62034)"
    }
  },
  {
    "type": "Feature",
    "geometry": {
       "type": "Point",
       "coordinates":  [ -87.654264,41.884114 ]
    },
    "properties": {
    "ID":621,
    "Station Name":"Aberdeen St & Randolph St",
    "Address":"Aberdeen St & Randolph St",
    "Total Docks":15,
    "Docks in Service":13,
    "Status":"In Service",
    "Location":"(41.884114, -87.654264)"
    }
  },
  {
    "type": "Feature",
    "geometry": {
       "type": "Point",
       "coordinates":  [ -87.696704,41.900363 ]
    },
    "properties": {
    "ID":622,
    "Station Name":"California Ave & Cortez St",
    "Address":"California Ave & Cortez St",
    "Total Docks":15,
    "Docks in Service":14,
    "Status":"In Service",
    "Location":"(41.900363, -87.696704)"
    }
  },
  {
    "type": "Feature",
    "geometry": {
       "type": "Point",
       "coordinates":  [ -87.628722,41.897448 ]
    },
    "properties": {
    "ID":106,
    "Station Name":"State St & Pearson St",
    "Address":"State St & Pearson St",
    "Total Docks":27,
    "Docks in Service":26,
    "Status":"In Service",
    "Location":"(41.897448, -87.628722)"
    }
  },
  {
    "type": "Feature",
    "geometry": {
       "type": "Point",
       "coordinates":  [ -87.657434953,41.84163254 ]
    },
    "properties": {
    "ID":366,
    "Station Name":"Loomis St & Archer Ave",
    "Address":"Loomis St & Archer Ave",
    "Total Docks":11,
    "Docks in Service":11,
    "Status":"In Service",
    "Location":"(41.84163253965, -87.6574349533)"
    }
  },
  {
    "type": "Feature",
    "geometry": {
       "type": "Point",
       "coordinates":  [ -87.6722,41.899181 ]
    },
    "properties": {
    "ID":657,
    "Station Name":"Wood St & Augusta Blvd",
    "Address":"Wood St & Augusta Blvd",
    "Total Docks":11,
    "Docks in Service":10,
    "Status":"In Service",
    "Location":"(41.899181, -87.6722)"
    }
  },
  {
    "type": "Feature",
    "geometry": {
       "type": "Point",
       "coordinates":  [ -87.657195,41.799659 ]
    },
    "properties": {
    "ID":556,
    "Station Name":"Throop St & 52nd St",
    "Address":"Throop St & 52nd St",
    "Total Docks":7,
    "Docks in Service":7,
    "Status":"In Service",
    "Location":"(41.799659, -87.657195)"
    }
  },
  {
    "type": "Feature",
    "geometry": {
       "type": "Point",
       "coordinates":  [ -87.54938625,41.757871448 ]
    },
    "properties": {
    "ID":398,
    "Station Name":"Rainbow Beach",
    "Address":"Rainbow Beach",
    "Total Docks":15,
    "Docks in Service":15,
    "Status":"In Service",
    "Location":"(41.75787144829, -87.54938625)"
    }
  },
  {
    "type": "Feature",
    "geometry": {
       "type": "Point",
       "coordinates":  [ -87.6148,41.743116 ]
    },
    "properties": {
    "ID":586,
    "Station Name":"MLK Jr Dr & 83rd St",
    "Address":"MLK Jr Dr & 83rd St",
    "Total Docks":11,
    "Docks in Service":11,
    "Status":"In Service",
    "Location":"(41.743116, -87.6148)"
    }
  },
  {
    "type": "Feature",
    "geometry": {
       "type": "Point",
       "coordinates":  [ -87.612813,41.886976 ]
    },
    "properties": {
    "ID":6,
    "Station Name":"Dusable Harbor",
    "Address":"Dusable Harbor",
    "Total Docks":39,
    "Docks in Service":39,
    "Status":"In Service",
    "Location":"(41.886976, -87.612813)"
    }
  },
  {
    "type": "Feature",
    "geometry": {
       "type": "Point",
       "coordinates":  [ -87.60563486,41.773720952 ]
    },
    "properties": {
    "ID":429,
    "Station Name":"Cottage Grove Ave & 67th St",
    "Address":"Cottage Grove Ave & 67th St",
    "Total Docks":11,
    "Docks in Service":11,
    "Status":"In Service",
    "Location":"(41.77372095205, -87.60563486)"
    }
  },
  {
    "type": "Feature",
    "geometry": {
       "type": "Point",
       "coordinates":  [ -87.632882,41.874618 ]
    },
    "properties": {
    "ID":89,
    "Station Name":"Financial Pl & Congress Pkwy (Temp)",
    "Address":"Financial Pl & Congress Pkwy (Temp)",
    "Total Docks":15,
    "Docks in Service":14,
    "Status":"In Service",
    "Location":"(41.874618, -87.632882)"
    }
  },
  {
    "type": "Feature",
    "geometry": {
       "type": "Point",
       "coordinates":  [ -87.706496176,41.866492782 ]
    },
    "properties": {
    "ID":435,
    "Station Name":"Kedzie Ave & Roosevelt Rd",
    "Address":"Kedzie Ave & Roosevelt Rd",
    "Total Docks":11,
    "Docks in Service":10,
    "Status":"In Service",
    "Location":"(41.86649278172, -87.7064961757)"
    }
  },
  {
    "type": "Feature",
    "geometry": {
       "type": "Point",
       "coordinates":  [ -87.623981,41.872773 ]
    },
    "properties": {
    "ID":623,
    "Station Name":"Michigan Ave & 8th St",
    "Address":"Michigan Ave & 8th St",
    "Total Docks":42,
    "Docks in Service":42,
    "Status":"In Service",
    "Location":"(41.872773, -87.623981)"
    }
  },
  {
    "type": "Feature",
    "geometry": {
       "type": "Point",
       "coordinates":  [ -87.665939,41.932595 ]
    },
    "properties": {
    "ID":319,
    "Station Name":"Greenview Ave & Diversey Pkwy",
    "Address":"Greenview Ave & Diversey Pkwy",
    "Total Docks":15,
    "Docks in Service":14,
    "Status":"In Service",
    "Location":"(41.932595, -87.665939)"
    }
  },
  {
    "type": "Feature",
    "geometry": {
       "type": "Point",
       "coordinates":  [ -87.651062,41.862378 ]
    },
    "properties": {
    "ID":137,
    "Station Name":"Morgan Ave & 14th Pl",
    "Address":"Morgan Ave & 14th Pl",
    "Total Docks":15,
    "Docks in Service":15,
    "Status":"In Service",
    "Location":"(41.862378, -87.651062)"
    }
  },
  {
    "type": "Feature",
    "geometry": {
       "type": "Point",
       "coordinates":  [ -87.629155,41.876268 ]
    },
    "properties": {
    "ID":624,
    "Station Name":"Dearborn St & Van Buren St (*)",
    "Address":"417 S Dearborn St",
    "Total Docks":16,
    "Docks in Service":16,
    "Status":"In Service",
    "Location":"(41.876268, -87.629155)"
    }
  },
  {
    "type": "Feature",
    "geometry": {
       "type": "Point",
       "coordinates":  [ -87.632326,41.894877 ]
    },
    "properties": {
    "ID":627,
    "Station Name":"LaSalle Dr & Huron St (*)",
    "Address":"LaSalle Dr & Huron St(*)",
    "Total Docks":20,
    "Docks in Service":18,
    "Status":"In Service",
    "Location":"(41.894877, -87.632326)"
    }
  },
  {
    "type": "Feature",
    "geometry": {
       "type": "Point",
       "coordinates":  [ -87.679618,41.943403 ]
    },
    "properties": {
    "ID":308,
    "Station Name":"Seeley Ave & Roscoe St",
    "Address":"Seeley Ave & Roscoe St",
    "Total Docks":11,
    "Docks in Service":10,
    "Status":"In Service",
    "Location":"(41.943403, -87.679618)"
    }
  },
  {
    "type": "Feature",
    "geometry": {
       "type": "Point",
       "coordinates":  [ -87.67686,41.89122 ]
    },
    "properties": {
    "ID":214,
    "Station Name":"Damen Ave & Grand Ave",
    "Address":"Damen Ave & Grand Ave",
    "Total Docks":23,
    "Docks in Service":23,
    "Status":"In Service",
    "Location":"(41.89122, -87.67686)"
    }
  },
  {
    "type": "Feature",
    "geometry": {
       "type": "Point",
       "coordinates":  [ -87.664843,41.779374 ]
    },
    "properties": {
    "ID":563,
    "Station Name":"Ashland Ave & 63rd St",
    "Address":"Ashland Ave & 63rd St",
    "Total Docks":11,
    "Docks in Service":10,
    "Status":"In Service",
    "Location":"(41.779374, -87.664843)"
    }
  },
  {
    "type": "Feature",
    "geometry": {
       "type": "Point",
       "coordinates":  [ -87.617867,41.865312 ]
    },
    "properties": {
    "ID":97,
    "Station Name":"Field Museum",
    "Address":"Off Street",
    "Total Docks":55,
    "Docks in Service":55,
    "Status":"In Service",
    "Location":"(41.865312, -87.617867)"
    }
  },
  {
    "type": "Feature",
    "geometry": {
       "type": "Point",
       "coordinates":  [ -87.65703,41.87464 ]
    },
    "properties": {
    "ID":32,
    "Station Name":"Racine Ave & Congress Pkwy",
    "Address":"550 S. Racine",
    "Total Docks":19,
    "Docks in Service":19,
    "Status":"In Service",
    "Location":"(41.87464, -87.65703)"
    }
  },
  {
    "type": "Feature",
    "geometry": {
       "type": "Point",
       "coordinates":  [ -87.614492,41.89257 ]
    },
    "properties": {
    "ID":99,
    "Station Name":"Lake Shore Dr & Ohio St",
    "Address":"Lake Shore Dr & Ohio St",
    "Total Docks":19,
    "Docks in Service":18,
    "Status":"In Service",
    "Location":"(41.89257, -87.614492)"
    }
  },
  {
    "type": "Feature",
    "geometry": {
       "type": "Point",
       "coordinates":  [ -87.694614758,41.946635831 ]
    },
    "properties": {
    "ID":491,
    "Station Name":"Talman Ave & Addison St",
    "Address":"Talman Ave & Addison St",
    "Total Docks":15,
    "Docks in Service":15,
    "Status":"In Service",
    "Location":"(41.9466358306, -87.694614758)"
    }
  },
  {
    "type": "Feature",
    "geometry": {
       "type": "Point",
       "coordinates":  [ -87.741018,41.880708 ]
    },
    "properties": {
    "ID":537,
    "Station Name":"Kenton Ave & Madison St",
    "Address":"Kenton Ave & Madison St",
    "Total Docks":11,
    "Docks in Service":11,
    "Status":"In Service",
    "Location":"(41.880708, -87.741018)"
    }
  },
  {
    "type": "Feature",
    "geometry": {
       "type": "Point",
       "coordinates":  [ -87.673895,41.877618 ]
    },
    "properties": {
    "ID":631,
    "Station Name":"Malcolm X College",
    "Address":"Malcolm X College",
    "Total Docks":19,
    "Docks in Service":18,
    "Status":"In Service",
    "Location":"(41.877618, -87.673895)"
    }
  },
  {
    "type": "Feature",
    "geometry": {
       "type": "Point",
       "coordinates":  [ -87.671956,41.889587 ]
    },
    "properties": {
    "ID":285,
    "Station Name":"Wood St & Hubbard St",
    "Address":"Off Street",
    "Total Docks":19,
    "Docks in Service":18,
    "Status":"In Service",
    "Location":"(41.889587, -87.671956)"
    }
  },
  {
    "type": "Feature",
    "geometry": {
       "type": "Point",
       "coordinates":  [ -87.56506,41.744531 ]
    },
    "properties": {
    "ID":582,
    "Station Name":"Phillips Ave & 83rd St",
    "Address":"On-Street",
    "Total Docks":11,
    "Docks in Service":11,
    "Status":"In Service",
    "Location":"(41.744531, -87.56506)"
    }
  },
  {
    "type": "Feature",
    "geometry": {
       "type": "Point",
       "coordinates":  [ -87.6435,41.91021 ]
    },
    "properties": {
    "ID":27,
    "Station Name":"Larrabee St & North Ave",
    "Address":"1530 N.Larrabee st",
    "Total Docks":19,
    "Docks in Service":18,
    "Status":"In Service",
    "Location":"(41.91021, -87.6435)"
    }
  },
  {
    "type": "Feature",
    "geometry": {
       "type": "Point",
       "coordinates":  [ -87.61535539,41.867225957 ]
    },
    "properties": {
    "ID":3,
    "Station Name":"Shedd Aquarium",
    "Address":"Shedd Aquarium",
    "Total Docks":55,
    "Docks in Service":55,
    "Status":"In Service",
    "Location":"(41.86722595682, -87.6153553902)"
    }
  },
  {
    "type": "Feature",
    "geometry": {
       "type": "Point",
       "coordinates":  [ -87.745261,41.886841 ]
    },
    "properties": {
    "ID":529,
    "Station Name":"Cicero Ave & Lake St",
    "Address":"Cicero Ave & Lake St",
    "Total Docks":11,
    "Docks in Service":10,
    "Status":"In Service",
    "Location":"(41.886841, -87.745261)"
    }
  },
  {
    "type": "Feature",
    "geometry": {
       "type": "Point",
       "coordinates":  [ -87.620104,41.895748 ]
    },
    "properties": {
    "ID":635,
    "Station Name":"Fairbanks St & Superior St (*)",
    "Address":"Fairbanks St & Superior St (*)",
    "Total Docks":12,
    "Docks in Service":11,
    "Status":"In Service",
    "Location":"(41.895748, -87.620104)"
    }
  },
  {
    "type": "Feature",
    "geometry": {
       "type": "Point",
       "coordinates":  [ -87.636618,41.890028 ]
    },
    "properties": {
    "ID":636,
    "Station Name":"Orleans St & Hubbard St (*)",
    "Address":"Orleans St & Hubbard St (*)",
    "Total Docks":12,
    "Docks in Service":11,
    "Status":"In Service",
    "Location":"(41.890028, -87.636618)"
    }
  },
  {
    "type": "Feature",
    "geometry": {
       "type": "Point",
       "coordinates":  [ -87.64664,41.87184 ]
    },
    "properties": {
    "ID":108,
    "Station Name":"Halsted St & Polk St",
    "Address":"Halsted St & Polk St",
    "Total Docks":19,
    "Docks in Service":19,
    "Status":"In Service",
    "Location":"(41.87184, -87.64664)"
    }
  },
  {
    "type": "Feature",
    "geometry": {
       "type": "Point",
       "coordinates":  [ -87.667747,41.895966 ]
    },
    "properties": {
    "ID":350,
    "Station Name":"Ashland Ave & Chicago Ave",
    "Address":"Ashland Ave & Chicago Ave",
    "Total Docks":15,
    "Docks in Service":14,
    "Status":"In Service",
    "Location":"(41.895966, -87.667747)"
    }
  },
  {
    "type": "Feature",
    "geometry": {
       "type": "Point",
       "coordinates":  [ -87.73569,41.96108 ]
    },
    "properties": {
    "ID":630,
    "Station Name":"Kildare Ave & Montrose Ave",
    "Address":"On-Street",
    "Total Docks":15,
    "Docks in Service":14,
    "Status":"In Service",
    "Location":"(41.96108, -87.73569)"
    }
  },
  {
    "type": "Feature",
    "geometry": {
       "type": "Point",
       "coordinates":  [ -87.64332,41.91468 ]
    },
    "properties": {
    "ID":28,
    "Station Name":"Larrabee St & Menomonee St",
    "Address":"590 W. Menomonee",
    "Total Docks":15,
    "Docks in Service":14,
    "Status":"In Service",
    "Location":"(41.91468, -87.64332)"
    }
  },
  {
    "type": "Feature",
    "geometry": {
       "type": "Point",
       "coordinates":  [ -87.667968,41.91461 ]
    },
    "properties": {
    "ID":628,
    "Station Name":"Walsh Park",
    "Address":"Off-Street",
    "Total Docks":23,
    "Docks in Service":22,
    "Status":"In Service",
    "Location":"(41.91461, -87.667968)"
    }
  },
  {
    "type": "Feature",
    "geometry": {
       "type": "Point",
       "coordinates":  [ -87.622849,41.743316 ]
    },
    "properties": {
    "ID":587,
    "Station Name":"Wabash Ave & 83rd St",
    "Address":"Wabash Ave & 83rd St",
    "Total Docks":11,
    "Docks in Service":11,
    "Status":"In Service",
    "Location":"(41.743316, -87.622849)"
    }
  },
  {
    "type": "Feature",
    "geometry": {
       "type": "Point",
       "coordinates":  [ -87.551208,41.744615 ]
    },
    "properties": {
    "ID":581,
    "Station Name":"Commercial Ave & 83rd St",
    "Address":"Commercial Ave & 83rd St",
    "Total Docks":11,
    "Docks in Service":11,
    "Status":"In Service",
    "Location":"(41.744615, -87.551208)"
    }
  },
  {
    "type": "Feature",
    "geometry": {
       "type": "Point",
       "coordinates":  [ -87.708051981,41.966686362 ]
    },
    "properties": {
    "ID":476,
    "Station Name":"Kedzie Ave & Leland Ave",
    "Address":"Kedzie Ave & Leland Ave",
    "Total Docks":15,
    "Docks in Service":15,
    "Status":"In Service",
    "Location":"(41.96668636205, -87.7080519806)"
    }
  },
  {
    "type": "Feature",
    "geometry": {
       "type": "Point",
       "coordinates":  [ -87.697668,41.92669 ]
    },
    "properties": {
    "ID":502,
    "Station Name":"California Ave & Altgeld St",
    "Address":"California Ave & Altgeld St",
    "Total Docks":15,
    "Docks in Service":15,
    "Status":"In Service",
    "Location":"(41.92669, -87.697668)"
    }
  },
  {
    "type": "Feature",
    "geometry": {
       "type": "Point",
       "coordinates":  [ -87.637297,41.763462 ]
    },
    "properties": {
    "ID":568,
    "Station Name":"Normal Ave & 72nd St",
    "Address":"Normal Ave & 72nd St",
    "Total Docks":11,
    "Docks in Service":11,
    "Status":"In Service",
    "Location":"(41.763462, -87.637297)"
    }
  },
  {
    "type": "Feature",
    "geometry": {
       "type": "Point",
       "coordinates":  [ -87.631715,41.849237 ]
    },
    "properties": {
    "ID":132,
    "Station Name":"Wentworth Ave & 24th St",
    "Address":"Wentworth Ave & 24th St",
    "Total Docks":15,
    "Docks in Service":15,
    "Status":"In Service",
    "Location":"(41.849237, -87.631715)"
    }
  },
  {
    "type": "Feature",
    "geometry": {
       "type": "Point",
       "coordinates":  [ -87.73541,41.885928 ]
    },
    "properties": {
    "ID":536,
    "Station Name":"Kostner Ave & Lake St",
    "Address":"Kostner Ave & Lake St",
    "Total Docks":11,
    "Docks in Service":11,
    "Status":"In Service",
    "Location":"(41.885928, -87.73541)"
    }
  },
  {
    "type": "Feature",
    "geometry": {
       "type": "Point",
       "coordinates":  [ -87.636282,41.918306 ]
    },
    "properties": {
    "ID":94,
    "Station Name":"Clark St & Armitage Ave",
    "Address":"Clark St & Armitage Ave",
    "Total Docks":31,
    "Docks in Service":30,
    "Status":"In Service",
    "Location":"(41.918306, -87.636282)"
    }
  },
  {
    "type": "Feature",
    "geometry": {
       "type": "Point",
       "coordinates":  [ -87.755527,41.887832 ]
    },
    "properties": {
    "ID":530,
    "Station Name":"Laramie Ave & Kinzie St",
    "Address":"Laramie Ave & Kinzie St",
    "Total Docks":11,
    "Docks in Service":9,
    "Status":"In Service",
    "Location":"(41.887832, -87.755527)"
    }
  },
  {
    "type": "Feature",
    "geometry": {
       "type": "Point",
       "coordinates":  [ -87.727907,41.88085 ]
    },
    "properties": {
    "ID":534,
    "Station Name":"Karlov Ave & Madison St",
    "Address":"Karlov Rd & Madison St",
    "Total Docks":11,
    "Docks in Service":10,
    "Status":"In Service",
    "Location":"(41.88085, -87.727907)"
    }
  },
  {
    "type": "Feature",
    "geometry": {
       "type": "Point",
       "coordinates":  [ -87.62377664,41.90096039 ]
    },
    "properties": {
    "ID":85,
    "Station Name":"Michigan Ave & Oak St",
    "Address":"140 E Oak St",
    "Total Docks":23,
    "Docks in Service":21,
    "Status":"In Service",
    "Location":"(41.90096039, -87.62377664)"
    }
  },
  {
    "type": "Feature",
    "geometry": {
       "type": "Point",
       "coordinates":  [ -87.654529,41.949399 ]
    },
    "properties": {
    "ID":114,
    "Station Name":"Sheffield Ave & Waveland Ave",
    "Address":"Sheffield Ave & Waveland Ave",
    "Total Docks":27,
    "Docks in Service":26,
    "Status":"In Service",
    "Location":"(41.949399, -87.654529)"
    }
  },
  {
    "type": "Feature",
    "geometry": {
       "type": "Point",
       "coordinates":  [ -87.652662,41.936266 ]
    },
    "properties": {
    "ID":115,
    "Station Name":"Sheffield Ave & Wellington Ave",
    "Address":"Sheffield Ave & Wellington Ave",
    "Total Docks":22,
    "Docks in Service":19,
    "Status":"In Service",
    "Location":"(41.936266, -87.652662)"
    }
  },
  {
    "type": "Feature",
    "geometry": {
       "type": "Point",
       "coordinates":  [ -87.606685,41.758308 ]
    },
    "properties": {
    "ID":570,
    "Station Name":"Evans Ave & 75th St",
    "Address":"Evans Ave & 75th St",
    "Total Docks":11,
    "Docks in Service":11,
    "Status":"In Service",
    "Location":"(41.758308, -87.606685)"
    }
  },
  {
    "type": "Feature",
    "geometry": {
       "type": "Point",
       "coordinates":  [ -87.755285,41.875806 ]
    },
    "properties": {
    "ID":543,
    "Station Name":"Laramie Ave & Gladys Ave",
    "Address":"Laramie Ave & Gladys Ave",
    "Total Docks":11,
    "Docks in Service":11,
    "Status":"In Service",
    "Location":"(41.875806, -87.755285)"
    }
  },
  {
    "type": "Feature",
    "geometry": {
       "type": "Point",
       "coordinates":  [ -87.755337,41.880207 ]
    },
    "properties": {
    "ID":540,
    "Station Name":"Laramie Ave & Madison St",
    "Address":"Laramie Ave & Madison St",
    "Total Docks":11,
    "Docks in Service":10,
    "Status":"In Service",
    "Location":"(41.880207, -87.755337)"
    }
  },
  {
    "type": "Feature",
    "geometry": {
       "type": "Point",
       "coordinates":  [ -87.654127,41.855136 ]
    },
    "properties": {
    "ID":171,
    "Station Name":"May St & Cullerton St",
    "Address":"May St & Cullerton St",
    "Total Docks":11,
    "Docks in Service":11,
    "Status":"In Service",
    "Location":"(41.855136, -87.654127)"
    }
  },
  {
    "type": "Feature",
    "geometry": {
       "type": "Point",
       "coordinates":  [ -87.689556,41.910535 ]
    },
    "properties": {
    "ID":160,
    "Station Name":"Campbell Ave & North Ave",
    "Address":"Campbell Ave & North Ave",
    "Total Docks":15,
    "Docks in Service":14,
    "Status":"In Service",
    "Location":"(41.910535, -87.689556)"
    }
  },
  {
    "type": "Feature",
    "geometry": {
       "type": "Point",
       "coordinates":  [ -87.681391,41.912616 ]
    },
    "properties": {
    "ID":158,
    "Station Name":"Milwaukee Ave & Wabansia Ave",
    "Address":"Milwaukee Ave & Wabansia Ave",
    "Total Docks":15,
    "Docks in Service":15,
    "Status":"In Service",
    "Location":"(41.912616, -87.681391)"
    }
  },
  {
    "type": "Feature",
    "geometry": {
       "type": "Point",
       "coordinates":  [ -87.640977,41.878419 ]
    },
    "properties": {
    "ID":638,
    "Station Name":"Clinton St & Jackson Blvd (*)",
    "Address":"Clinton St & Jackson Blvd (*)",
    "Total Docks":16,
    "Docks in Service":16,
    "Status":"In Service",
    "Location":"(41.878419, -87.640977)"
    }
  },
  {
    "type": "Feature",
    "geometry": {
       "type": "Point",
       "coordinates":  [ -87.645361,41.965845 ]
    },
    "properties": {
    "ID":639,
    "Station Name":"Lakefront Trail & Wilson Ave",
    "Address":"Lakefront Trail & Wilson Ave",
    "Total Docks":15,
    "Docks in Service":13,
    "Status":"In Service",
    "Location":"(41.965845, -87.645361)"
    }
  },
  {
    "type": "Feature",
    "geometry": {
       "type": "Point",
       "coordinates":  [ -87.672069,41.895634 ]
    },
    "properties": {
    "ID":637,
    "Station Name":"Wood St & Chicago Ave (*)",
    "Address":"Wood St & Chicago Ave (*)",
    "Total Docks":12,
    "Docks in Service":12,
    "Status":"In Service",
    "Location":"(41.895634, -87.672069)"
    }
  },
  {
    "type": "Feature",
    "geometry": {
       "type": "Point",
       "coordinates":  [ -87.689397,41.892048 ]
    },
    "properties": {
    "ID":643,
    "Station Name":"Smith Park (*)",
    "Address":"Smith Park (*)",
    "Total Docks":12,
    "Docks in Service":12,
    "Status":"In Service",
    "Location":"(41.892048, -87.689397)"
    }
  },
  {
    "type": "Feature",
    "geometry": {
       "type": "Point",
       "coordinates":  [ -87.763238,41.880121 ]
    },
    "properties": {
    "ID":542,
    "Station Name":"Central Ave & Madison St",
    "Address":"Central Ave & Madison St",
    "Total Docks":11,
    "Docks in Service":10,
    "Status":"In Service",
    "Location":"(41.880121, -87.763238)"
    }
  },
  {
    "type": "Feature",
    "geometry": {
       "type": "Point",
       "coordinates":  [ -87.67564,41.8492 ]
    },
    "properties": {
    "ID":167,
    "Station Name":"Damen Ave & Coulter St",
    "Address":"Damen Ave & Coulter St",
    "Total Docks":11,
    "Docks in Service":11,
    "Status":"In Service",
    "Location":"(41.8492, -87.67564)"
    }
  },
  {
    "type": "Feature",
    "geometry": {
       "type": "Point",
       "coordinates":  [ -87.764499,41.872993 ]
    },
    "properties": {
    "ID":541,
    "Station Name":"Central Ave & Harrison St",
    "Address":"Central Ave & Harrison St",
    "Total Docks":11,
    "Docks in Service":10,
    "Status":"In Service",
    "Location":"(41.872993, -87.764499)"
    }
  },
  {
    "type": "Feature",
    "geometry": {
       "type": "Point",
       "coordinates":  [ -87.745405,41.877613 ]
    },
    "properties": {
    "ID":539,
    "Station Name":"Cicero Ave & Quincy St",
    "Address":"Cicero Ave & Quincy St",
    "Total Docks":11,
    "Docks in Service":11,
    "Status":"In Service",
    "Location":"(41.877613, -87.745405)"
    }
  },
  {
    "type": "Feature",
    "geometry": {
       "type": "Point",
       "coordinates":  [ -87.624621,41.756971 ]
    },
    "properties": {
    "ID":572,
    "Station Name":"State St & 76th St",
    "Address":"State St & 76th St",
    "Total Docks":11,
    "Docks in Service":11,
    "Status":"In Service",
    "Location":"(41.756971, -87.624621)"
    }
  },
  {
    "type": "Feature",
    "geometry": {
       "type": "Point",
       "coordinates":  [ -87.646795,41.847203 ]
    },
    "properties": {
    "ID":206,
    "Station Name":"Halsted St & Archer Ave",
    "Address":"Halsted St & Archer Ave",
    "Total Docks":15,
    "Docks in Service":15,
    "Status":"In Service",
    "Location":"(41.847203, -87.646795)"
    }
  },
  {
    "type": "Feature",
    "geometry": {
       "type": "Point",
       "coordinates":  [ -87.685838,41.854109 ]
    },
    "properties": {
    "ID":203,
    "Station Name":"Western Ave & 21st St",
    "Address":"Western Ave & 21st St",
    "Total Docks":15,
    "Docks in Service":15,
    "Status":"In Service",
    "Location":"(41.854109, -87.685838)"
    }
  },
  {
    "type": "Feature",
    "geometry": {
       "type": "Point",
       "coordinates":  [ -87.774453,41.880281 ]
    },
    "properties": {
    "ID":544,
    "Station Name":"Austin Blvd & Madison St",
    "Address":"Austin Blvd & Madison St",
    "Total Docks":11,
    "Docks in Service":11,
    "Status":"In Service",
    "Location":"(41.880281, -87.774453)"
    }
  },
  {
    "type": "Feature",
    "geometry": {
       "type": "Point",
       "coordinates":  [ -87.648789,41.881892 ]
    },
    "properties": {
    "ID":198,
    "Station Name":"Green St & Madison St",
    "Address":"Green St & Madison St",
    "Total Docks":27,
    "Docks in Service":26,
    "Status":"In Service",
    "Location":"(41.881892, -87.648789)"
    }
  },
  {
    "type": "Feature",
    "geometry": {
       "type": "Point",
       "coordinates":  [ -87.639904,41.879255 ]
    },
    "properties": {
    "ID":192,
    "Station Name":"Canal St & Adams St",
    "Address":"Canal St & Adams St",
    "Total Docks":47,
    "Docks in Service":45,
    "Status":"In Service",
    "Location":"(41.879255, -87.639904)"
    }
  },
  {
    "type": "Feature",
    "geometry": {
       "type": "Point",
       "coordinates":  [ -87.6216,41.82168 ]
    },
    "properties": {
    "ID":201,
    "Station Name":"Indiana Ave & 40th St",
    "Address":"Indiana Ave & 40th St",
    "Total Docks":11,
    "Docks in Service":11,
    "Status":"In Service",
    "Location":"(41.82168, -87.6216)"
    }
  },
  {
    "type": "Feature",
    "geometry": {
       "type": "Point",
       "coordinates":  [ -87.616279,41.809851 ]
    },
    "properties": {
    "ID":200,
    "Station Name":"MLK Jr Dr & 47th St",
    "Address":"MLK Jr Dr & 47th St",
    "Total Docks":11,
    "Docks in Service":11,
    "Status":"In Service",
    "Location":"(41.809851, -87.616279)"
    }
  },
  {
    "type": "Feature",
    "geometry": {
       "type": "Point",
       "coordinates":  [ -87.618691,41.794853 ]
    },
    "properties": {
    "ID":204,
    "Station Name":"Prairie Ave & Garfield Blvd",
    "Address":"Prairie Ave & Garfield Blvd",
    "Total Docks":11,
    "Docks in Service":11,
    "Status":"In Service",
    "Location":"(41.794853, -87.618691)"
    }
  },
  {
    "type": "Feature",
    "geometry": {
       "type": "Point",
       "coordinates":  [ -87.64926,41.925905 ]
    },
    "properties": {
    "ID":127,
    "Station Name":"Lincoln Ave & Fullerton Ave",
    "Address":"Lincoln Ave & Fullerton Ave",
    "Total Docks":15,
    "Docks in Service":14,
    "Status":"In Service",
    "Location":"(41.925905, -87.64926)"
    }
  },
  {
    "type": "Feature",
    "geometry": {
       "type": "Point",
       "coordinates":  [ -87.631697,41.890762 ]
    },
    "properties": {
    "ID":181,
    "Station Name":"LaSalle St & Illinois St",
    "Address":"On Street",
    "Total Docks":31,
    "Docks in Service":31,
    "Status":"In Service",
    "Location":"(41.890762, -87.631697)"
    }
  },
  {
    "type": "Feature",
    "geometry": {
       "type": "Point",
       "coordinates":  [ -87.6511,41.883165 ]
    },
    "properties": {
    "ID":233,
    "Station Name":"Sangamon St & Washington Blvd (*)",
    "Address":"Sangamon St & Washington Blvd (*)",
    "Total Docks":16,
    "Docks in Service":16,
    "Status":"In Service",
    "Location":"(41.883165, -87.6511)"
    }
  },
  {
    "type": "Feature",
    "geometry": {
       "type": "Point",
       "coordinates":  [ -87.639833,41.882091 ]
    },
    "properties": {
    "ID":174,
    "Station Name":"Canal St & Madison St",
    "Address":"Canal St & Madison St",
    "Total Docks":35,
    "Docks in Service":35,
    "Status":"In Service",
    "Location":"(41.882091, -87.639833)"
    }
  },
  {
    "type": "Feature",
    "geometry": {
       "type": "Point",
       "coordinates":  [ -87.67493,41.88137 ]
    },
    "properties": {
    "ID":215,
    "Station Name":"Damen Ave & Madison St",
    "Address":"Damen Ave & Madison St",
    "Total Docks":15,
    "Docks in Service":14,
    "Status":"In Service",
    "Location":"(41.88137, -87.67493)"
    }
  },
  {
    "type": "Feature",
    "geometry": {
       "type": "Point",
       "coordinates":  [ -87.65114,41.8378 ]
    },
    "properties": {
    "ID":280,
    "Station Name":"Morgan St & 31st St",
    "Address":"Morgan St & 31st St",
    "Total Docks":11,
    "Docks in Service":11,
    "Status":"In Service",
    "Location":"(41.8378, -87.65114)"
    }
  },
  {
    "type": "Feature",
    "geometry": {
       "type": "Point",
       "coordinates":  [ -87.685109,41.84847 ]
    },
    "properties": {
    "ID":281,
    "Station Name":"Western Ave & 24th St",
    "Address":"Western Ave & 24th St",
    "Total Docks":10,
    "Docks in Service":10,
    "Status":"In Service",
    "Location":"(41.84847, -87.685109)"
    }
  },
  {
    "type": "Feature",
    "geometry": {
       "type": "Point",
       "coordinates":  [ -87.656625,41.861267 ]
    },
    "properties": {
    "ID":274,
    "Station Name":"Racine Ave & 15th St",
    "Address":"Racine Ave & 15th St",
    "Total Docks":15,
    "Docks in Service":15,
    "Status":"In Service",
    "Location":"(41.861267, -87.656625)"
    }
  },
  {
    "type": "Feature",
    "geometry": {
       "type": "Point",
       "coordinates":  [ -87.658751,41.891795 ]
    },
    "properties": {
    "ID":186,
    "Station Name":"Ogden Ave & Race Ave",
    "Address":"Ogden Ave & Race Ave",
    "Total Docks":15,
    "Docks in Service":15,
    "Status":"In Service",
    "Location":"(41.891795, -87.658751)"
    }
  },
  {
    "type": "Feature",
    "geometry": {
       "type": "Point",
       "coordinates":  [ -87.656919,41.886926 ]
    },
    "properties": {
    "ID":217,
    "Station Name":"Racine Ave (May St) & Fulton St",
    "Address":"Racine Ave (May St) & Fulton St",
    "Total Docks":14,
    "Docks in Service":14,
    "Status":"In Service",
    "Location":"(41.886926, -87.656919)"
    }
  },
  {
    "type": "Feature",
    "geometry": {
       "type": "Point",
       "coordinates":  [ -87.606582,41.816499 ]
    },
    "properties": {
    "ID":271,
    "Station Name":"Cottage Grove Ave & 43rd St",
    "Address":"Cottage Grove Ave & 43rd St",
    "Total Docks":11,
    "Docks in Service":9,
    "Status":"In Service",
    "Location":"(41.816499, -87.606582)"
    }
  },
  {
    "type": "Feature",
    "geometry": {
       "type": "Point",
       "coordinates":  [ -87.586882871,41.75866967 ]
    },
    "properties": {
    "ID":270,
    "Station Name":"Stony Island Ave & 75th St",
    "Address":"Stony Island Ave & 75th St",
    "Total Docks":11,
    "Docks in Service":11,
    "Status":"In Service",
    "Location":"(41.7586696704, -87.586882871)"
    }
  },
  {
    "type": "Feature",
    "geometry": {
       "type": "Point",
       "coordinates":  [ -87.64129,41.830629 ]
    },
    "properties": {
    "ID":278,
    "Station Name":"Wallace St & 35th St",
    "Address":"On Street",
    "Total Docks":15,
    "Docks in Service":15,
    "Status":"In Service",
    "Location":"(41.830629, -87.64129)"
    }
  },
  {
    "type": "Feature",
    "geometry": {
       "type": "Point",
       "coordinates":  [ -87.632504,41.830777 ]
    },
    "properties": {
    "ID":405,
    "Station Name":"Wentworth Ave & 35th St",
    "Address":"Wentworth Ave & 35th St",
    "Total Docks":15,
    "Docks in Service":15,
    "Status":"In Service",
    "Location":"(41.830777, -87.632504)"
    }
  },
  {
    "type": "Feature",
    "geometry": {
       "type": "Point",
       "coordinates":  [ -87.647071,41.864883 ]
    },
    "properties": {
    "ID":282,
    "Station Name":"Halsted St & Maxwell St",
    "Address":"Halsted St & Maxwell St",
    "Total Docks":15,
    "Docks in Service":15,
    "Status":"In Service",
    "Location":"(41.864883, -87.647071)"
    }
  },
  {
    "type": "Feature",
    "geometry": {
       "type": "Point",
       "coordinates":  [ -87.625734,41.870769 ]
    },
    "properties": {
    "ID":321,
    "Station Name":"Wabash Ave & 9th St",
    "Address":"Wabash Ave & 9th St",
    "Total Docks":19,
    "Docks in Service":18,
    "Status":"In Service",
    "Location":"(41.870769, -87.625734)"
    }
  },
  {
    "type": "Feature",
    "geometry": {
       "type": "Point",
       "coordinates":  [ -87.749594,41.954468 ]
    },
    "properties": {
    "ID":589,
    "Station Name":"Milwaukee Ave & Cuyler Ave",
    "Address":"Milwaukee Ave & Cuyler Ave",
    "Total Docks":15,
    "Docks in Service":15,
    "Status":"In Service",
    "Location":"(41.954468, -87.749594)"
    }
  },
  {
    "type": "Feature",
    "geometry": {
       "type": "Point",
       "coordinates":  [ -87.567514,41.773643 ]
    },
    "properties": {
    "ID":355,
    "Station Name":"South Shore Dr & 67th St",
    "Address":"South Shore Dr & 67th St",
    "Total Docks":15,
    "Docks in Service":15,
    "Status":"In Service",
    "Location":"(41.773643, -87.567514)"
    }
  },
  {
    "type": "Feature",
    "geometry": {
       "type": "Point",
       "coordinates":  [ -87.618034,41.831379 ]
    },
    "properties": {
    "ID":335,
    "Station Name":"Calumet Ave & 35th St",
    "Address":"Calumet Ave & 35th St",
    "Total Docks":15,
    "Docks in Service":15,
    "Status":"In Service",
    "Location":"(41.831379, -87.618034)"
    }
  },
  {
    "type": "Feature",
    "geometry": {
       "type": "Point",
       "coordinates":  [ -87.670298309,41.830104654 ]
    },
    "properties": {
    "ID":369,
    "Station Name":"Wood St & 35th St",
    "Address":"NA1",
    "Total Docks":11,
    "Docks in Service":10,
    "Status":"In Service",
    "Location":"(41.83010465416, -87.6702983089)"
    }
  },
  {
    "type": "Feature",
    "geometry": {
       "type": "Point",
       "coordinates":  [ -87.672552,41.907655 ]
    },
    "properties": {
    "ID":61,
    "Station Name":"Wood St & Milwaukee Ave",
    "Address":"1416 N Wood St",
    "Total Docks":19,
    "Docks in Service":19,
    "Status":"In Service",
    "Location":"(41.907655, -87.672552)"
    }
  },
  {
    "type": "Feature",
    "geometry": {
       "type": "Point",
       "coordinates":  [ -87.667252,41.907066 ]
    },
    "properties": {
    "ID":333,
    "Station Name":"Ashland Ave & Blackhawk St",
    "Address":"Ashland Ave & Blackhawk St",
    "Total Docks":15,
    "Docks in Service":15,
    "Status":"In Service",
    "Location":"(41.907066, -87.667252)"
    }
  },
  {
    "type": "Feature",
    "geometry": {
       "type": "Point",
       "coordinates":  [ -87.673688,41.871262 ]
    },
    "properties": {
    "ID":342,
    "Station Name":"Wolcott Ave & Polk St",
    "Address":"Wolcott Ave & Polk St",
    "Total Docks":23,
    "Docks in Service":21,
    "Status":"In Service",
    "Location":"(41.871262, -87.673688)"
    }
  },
  {
    "type": "Feature",
    "geometry": {
       "type": "Point",
       "coordinates":  [ -87.615853262,41.793429457 ]
    },
    "properties": {
    "ID":421,
    "Station Name":"MLK Jr Dr & 56th St (*)",
    "Address":"MLK Jr Dr & 56th St (*)",
    "Total Docks":12,
    "Docks in Service":12,
    "Status":"In Service",
    "Location":"(41.79342945658, -87.6158532619)"
    }
  },
  {
    "type": "Feature",
    "geometry": {
       "type": "Point",
       "coordinates":  [ -87.586647,41.778881 ]
    },
    "properties": {
    "ID":95,
    "Station Name":"Stony Island Ave & 64th St",
    "Address":"Stony Island Ave & 64th St",
    "Total Docks":11,
    "Docks in Service":11,
    "Status":"In Service",
    "Location":"(41.778881, -87.586647)"
    }
  },
  {
    "type": "Feature",
    "geometry": {
       "type": "Point",
       "coordinates":  [ -87.644613578,41.76906172 ]
    },
    "properties": {
    "ID":391,
    "Station Name":"Halsted St & 69th St",
    "Address":"Halsted St & 69th St",
    "Total Docks":11,
    "Docks in Service":11,
    "Status":"In Service",
    "Location":"(41.76906172032, -87.6446135779)"
    }
  },
  {
    "type": "Feature",
    "geometry": {
       "type": "Point",
       "coordinates":  [ -87.633124,41.794982 ]
    },
    "properties": {
    "ID":385,
    "Station Name":"Princeton Ave & Garfield Blvd",
    "Address":"Princeton Ave & Garfield Blvd",
    "Total Docks":11,
    "Docks in Service":11,
    "Status":"In Service",
    "Location":"(41.794982, -87.633124)"
    }
  },
  {
    "type": "Feature",
    "geometry": {
       "type": "Point",
       "coordinates":  [ -87.667284,41.874293 ]
    },
    "properties": {
    "ID":383,
    "Station Name":"Ashland Ave & Harrison St",
    "Address":"Ashland Ave & Harrison St",
    "Total Docks":23,
    "Docks in Service":22,
    "Status":"In Service",
    "Location":"(41.874293, -87.667284)"
    }
  },
  {
    "type": "Feature",
    "geometry": {
       "type": "Point",
       "coordinates":  [ -87.725704,41.874325 ]
    },
    "properties": {
    "ID":535,
    "Station Name":"Pulaski Rd & Congress Pkwy",
    "Address":"Pulaski Rd & Congress Pkwy",
    "Total Docks":11,
    "Docks in Service":11,
    "Status":"In Service",
    "Location":"(41.874325, -87.725704)"
    }
  },
  {
    "type": "Feature",
    "geometry": {
       "type": "Point",
       "coordinates":  [ -87.735737,41.877917 ]
    },
    "properties": {
    "ID":545,
    "Station Name":"Kostner Ave & Adams St",
    "Address":"Kostner Ave & Adams St",
    "Total Docks":11,
    "Docks in Service":11,
    "Status":"In Service",
    "Location":"(41.877917, -87.735737)"
    }
  },
  {
    "type": "Feature",
    "geometry": {
       "type": "Point",
       "coordinates":  [ -87.615942857,41.780080637 ]
    },
    "properties": {
    "ID":430,
    "Station Name":"MLK Jr Dr & 63rd St",
    "Address":"MLK Jr Dr & 63rd St",
    "Total Docks":11,
    "Docks in Service":11,
    "Status":"In Service",
    "Location":"(41.78008063659, -87.6159428567)"
    }
  },
  {
    "type": "Feature",
    "geometry": {
       "type": "Point",
       "coordinates":  [ -87.644620815,41.779381142 ]
    },
    "properties": {
    "ID":388,
    "Station Name":"Halsted St & 63rd St",
    "Address":"Halsted St & 63rd St",
    "Total Docks":11,
    "Docks in Service":11,
    "Status":"In Service",
    "Location":"(41.77938114228, -87.6446208145)"
    }
  },
  {
    "type": "Feature",
    "geometry": {
       "type": "Point",
       "coordinates":  [ -87.606112388,41.780599015 ]
    },
    "properties": {
    "ID":427,
    "Station Name":"Cottage Grove Ave & 63rd St",
    "Address":"Cottage Grove Ave & 63rd St",
    "Total Docks":15,
    "Docks in Service":15,
    "Status":"In Service",
    "Location":"(41.78059901484, -87.606112388)"
    }
  },
  {
    "type": "Feature",
    "geometry": {
       "type": "Point",
       "coordinates":  [ -87.601072761,41.785097146 ]
    },
    "properties": {
    "ID":426,
    "Station Name":"Ellis Ave & 60th St",
    "Address":"Ellis Ave & 60th St",
    "Total Docks":19,
    "Docks in Service":19,
    "Status":"In Service",
    "Location":"(41.78509714636, -87.6010727606)"
    }
  },
  {
    "type": "Feature",
    "geometry": {
       "type": "Point",
       "coordinates":  [ -87.731023,41.946264 ]
    },
    "properties": {
    "ID":488,
    "Station Name":"Pulaski Rd & Eddy St (Temp)",
    "Address":"Pulaski Rd & Eddy St (Temp)",
    "Total Docks":11,
    "Docks in Service":10,
    "Status":"In Service",
    "Location":"(41.946264, -87.731023)"
    }
  },
  {
    "type": "Feature",
    "geometry": {
       "type": "Point",
       "coordinates":  [ -87.608799195,41.831274235 ]
    },
    "properties": {
    "ID":406,
    "Station Name":"Lake Park Ave & 35th St",
    "Address":"Lake Park Ave & 35th St",
    "Total Docks":19,
    "Docks in Service":18,
    "Status":"In Service",
    "Location":"(41.83127423549, -87.6087991946)"
    }
  },
  {
    "type": "Feature",
    "geometry": {
       "type": "Point",
       "coordinates":  [ -87.592464,41.805772 ]
    },
    "properties": {
    "ID":416,
    "Station Name":"Dorchester Ave & 49th St",
    "Address":"Dorchester Ave & 49th St",
    "Total Docks":15,
    "Docks in Service":15,
    "Status":"In Service",
    "Location":"(41.805772, -87.592464)"
    }
  },
  {
    "type": "Feature",
    "geometry": {
       "type": "Point",
       "coordinates":  [ -87.686596016,41.898417689 ]
    },
    "properties": {
    "ID":374,
    "Station Name":"Western Ave & Walton St",
    "Address":"Western Ave & Walton St",
    "Total Docks":23,
    "Docks in Service":20,
    "Status":"In Service",
    "Location":"(41.89841768945, -87.6865960164)"
    }
  },
  {
    "type": "Feature",
    "geometry": {
       "type": "Point",
       "coordinates":  [ -87.635491,41.842733 ]
    },
    "properties": {
    "ID":401,
    "Station Name":"Shields Ave & 28th Pl",
    "Address":"Shields Ave & 28th Pl",
    "Total Docks":11,
    "Docks in Service":10,
    "Status":"In Service",
    "Location":"(41.842733, -87.635491)"
    }
  },
  {
    "type": "Feature",
    "geometry": {
       "type": "Point",
       "coordinates":  [ -87.689438282,41.994161369 ]
    },
    "properties": {
    "ID":452,
    "Station Name":"Western Ave & Granville Ave",
    "Address":"Western Ave & Granville Ave",
    "Total Docks":15,
    "Docks in Service":14,
    "Status":"In Service",
    "Location":"(41.99416136902, -87.689438282)"
    }
  },
  {
    "type": "Feature",
    "geometry": {
       "type": "Point",
       "coordinates":  [ -87.709261,41.975672 ]
    },
    "properties": {
    "ID":470,
    "Station Name":"Kedzie Ave & Foster Ave",
    "Address":"Kedzie Ave & Foster Ave",
    "Total Docks":15,
    "Docks in Service":14,
    "Status":"In Service",
    "Location":"(41.975672, -87.709261)"
    }
  },
  {
    "type": "Feature",
    "geometry": {
       "type": "Point",
       "coordinates":  [ -87.660284535,41.994779688 ]
    },
    "properties": {
    "ID":454,
    "Station Name":"Broadway & Granville Ave",
    "Address":"Broadway & Granville Ave",
    "Total Docks":23,
    "Docks in Service":23,
    "Status":"In Service",
    "Location":"(41.9947796884, -87.6602845349)"
    }
  },
  {
    "type": "Feature",
    "geometry": {
       "type": "Point",
       "coordinates":  [ -87.648479875,41.899368439 ]
    },
    "properties": {
    "ID":365,
    "Station Name":"Halsted St & North Branch St",
    "Address":"Halsted St & North Branch St",
    "Total Docks":15,
    "Docks in Service":13,
    "Status":"In Service",
    "Location":"(41.89936843921, -87.6484798752)"
    }
  },
  {
    "type": "Feature",
    "geometry": {
       "type": "Point",
       "coordinates":  [ -87.67328,41.87501 ]
    },
    "properties": {
    "ID":122,
    "Station Name":"Ogden Ave & Congress Pkwy",
    "Address":"Ogden Ave & Congress Pkwy",
    "Total Docks":15,
    "Docks in Service":15,
    "Status":"In Service",
    "Location":"(41.87501, -87.67328)"
    }
  },
  {
    "type": "Feature",
    "geometry": {
       "type": "Point",
       "coordinates":  [ -87.664199,41.957081 ]
    },
    "properties": {
    "ID":292,
    "Station Name":"Southport Ave & Clark St",
    "Address":"Southport Ave & Clark St",
    "Total Docks":11,
    "Docks in Service":10,
    "Status":"In Service",
    "Location":"(41.957081, -87.664199)"
    }
  },
  {
    "type": "Feature",
    "geometry": {
       "type": "Point",
       "coordinates":  [ -87.764902,41.894958 ]
    },
    "properties": {
    "ID":550,
    "Station Name":"Central Ave & Chicago Ave",
    "Address":"Central Ave & Chicago Ave",
    "Total Docks":11,
    "Docks in Service":11,
    "Status":"In Service",
    "Location":"(41.894958, -87.764902)"
    }
  },
  {
    "type": "Feature",
    "geometry": {
       "type": "Point",
       "coordinates":  [ -87.716114961,41.980394235 ]
    },
    "properties": {
    "ID":469,
    "Station Name":"St. Louis Ave & Balmoral Ave",
    "Address":"St. Louis Ave & Balmoral Ave",
    "Total Docks":15,
    "Docks in Service":15,
    "Status":"In Service",
    "Location":"(41.98039423475, -87.7161149615)"
    }
  },
  {
    "type": "Feature",
    "geometry": {
       "type": "Point",
       "coordinates":  [ -87.595751,41.75916 ]
    },
    "properties": {
    "ID":569,
    "Station Name":"Woodlawn Ave & 75th St",
    "Address":"Woodlawn Ave & 75th St",
    "Total Docks":11,
    "Docks in Service":11,
    "Status":"In Service",
    "Location":"(41.75916, -87.595751)"
    }
  },
  {
    "type": "Feature",
    "geometry": {
       "type": "Point",
       "coordinates":  [ -87.55927465,41.76218896 ]
    },
    "properties": {
    "ID":399,
    "Station Name":"South Shore Dr & 74th St",
    "Address":"South Shore Dr & 74th St",
    "Total Docks":11,
    "Docks in Service":11,
    "Status":"In Service",
    "Location":"(41.76218896038, -87.55927465)"
    }
  },
  {
    "type": "Feature",
    "geometry": {
       "type": "Point",
       "coordinates":  [ -87.70892252,41.982397085 ]
    },
    "properties": {
    "ID":494,
    "Station Name":"Kedzie Ave & Bryn Mawr Ave",
    "Address":"Kedzie Ave & Bryn Mawr Ave",
    "Total Docks":15,
    "Docks in Service":14,
    "Status":"In Service",
    "Location":"(41.98239708485, -87.7089225202)"
    }
  },
  {
    "type": "Feature",
    "geometry": {
       "type": "Point",
       "coordinates":  [ -87.622634,41.736646 ]
    },
    "properties": {
    "ID":595,
    "Station Name":"Wabash Ave & 87th St",
    "Address":"Wabash Ave & 87th St",
    "Total Docks":11,
    "Docks in Service":11,
    "Status":"In Service",
    "Location":"(41.736646, -87.622634)"
    }
  },
  {
    "type": "Feature",
    "geometry": {
       "type": "Point",
       "coordinates":  [ -87.66717,41.88592 ]
    },
    "properties": {
    "ID":119,
    "Station Name":"Ashland Ave & Lake St (Temp)",
    "Address":"Ashland Ave & Lake St (Temp)",
    "Total Docks":19,
    "Docks in Service":19,
    "Status":"In Service",
    "Location":"(41.88592, -87.66717)"
    }
  },
  {
    "type": "Feature",
    "geometry": {
       "type": "Point",
       "coordinates":  [ -87.668385,41.939365 ]
    },
    "properties": {
    "ID":131,
    "Station Name":"Lincoln Ave & Belmont Ave",
    "Address":"Lincoln Ave & Belmont Ave",
    "Total Docks":15,
    "Docks in Service":13,
    "Status":"In Service",
    "Location":"(41.939365, -87.668385)"
    }
  },
  {
    "type": "Feature",
    "geometry": {
       "type": "Point",
       "coordinates":  [ -87.716889294,41.935337283 ]
    },
    "properties": {
    "ID":500,
    "Station Name":"Central Park Ave & Elbridge Ave",
    "Address":"Central Park Ave & Elbridge Ave",
    "Total Docks":15,
    "Docks in Service":14,
    "Status":"In Service",
    "Location":"(41.93533728263, -87.7168892935)"
    }
  },
  {
    "type": "Feature",
    "geometry": {
       "type": "Point",
       "coordinates":  [ -87.675726,41.855048 ]
    },
    "properties": {
    "ID":124,
    "Station Name":"Damen Ave & Cullerton St",
    "Address":"Damen Ave & Cullerton St",
    "Total Docks":15,
    "Docks in Service":14,
    "Status":"In Service",
    "Location":"(41.855048, -87.675726)"
    }
  },
  {
    "type": "Feature",
    "geometry": {
       "type": "Point",
       "coordinates":  [ -87.683359,41.946655 ]
    },
    "properties": {
    "ID":492,
    "Station Name":"Leavitt St & Addison St",
    "Address":"Leavitt St & Addison St",
    "Total Docks":15,
    "Docks in Service":14,
    "Status":"In Service",
    "Location":"(41.946655, -87.683359)"
    }
  },
  {
    "type": "Feature",
    "geometry": {
       "type": "Point",
       "coordinates":  [ -87.656959,41.865054 ]
    },
    "properties": {
    "ID":136,
    "Station Name":"Racine Ave & 13th St",
    "Address":"Racine Ave & 13th St",
    "Total Docks":15,
    "Docks in Service":15,
    "Status":"In Service",
    "Location":"(41.865054, -87.656959)"
    }
  },
  {
    "type": "Feature",
    "geometry": {
       "type": "Point",
       "coordinates":  [ -87.652310469,41.984036696 ]
    },
    "properties": {
    "ID":459,
    "Station Name":"Lakefront Trail & Bryn Mawr Ave",
    "Address":"Lakefront Trail & Bryn Mawr Ave",
    "Total Docks":19,
    "Docks in Service":17,
    "Status":"In Service",
    "Location":"(41.98403669612, -87.6523104689)"
    }
  },
  {
    "type": "Feature",
    "geometry": {
       "type": "Point",
       "coordinates":  [ -87.638505772,41.889176833 ]
    },
    "properties": {
    "ID":133,
    "Station Name":"Kingsbury St & Kinzie St",
    "Address":"Kingsbury St & Kinzie St",
    "Total Docks":31,
    "Docks in Service":29,
    "Status":"In Service",
    "Location":"(41.88917683258, -87.6385057718)"
    }
  },
  {
    "type": "Feature",
    "geometry": {
       "type": "Point",
       "coordinates":  [ -87.6355,41.885837 ]
    },
    "properties": {
    "ID":164,
    "Station Name":"Franklin St & Lake St",
    "Address":"Franklin St & Lake St",
    "Total Docks":27,
    "Docks in Service":23,
    "Status":"In Service",
    "Location":"(41.885837, -87.6355)"
    }
  },
  {
    "type": "Feature",
    "geometry": {
       "type": "Point",
       "coordinates":  [ -87.682912644,42.012132277 ]
    },
    "properties": {
    "ID":466,
    "Station Name":"Ridge Blvd & Touhy Ave",
    "Address":"Ridge Blvd & Touhy Ave",
    "Total Docks":15,
    "Docks in Service":14,
    "Status":"In Service",
    "Location":"(42.01213227742, -87.6829126443)"
    }
  },
  {
    "type": "Feature",
    "geometry": {
       "type": "Point",
       "coordinates":  [ -87.585337,41.751173 ]
    },
    "properties": {
    "ID":577,
    "Station Name":"Stony Island Ave & South Chicago Ave",
    "Address":"Stony Island Ave & South Chicago Ave",
    "Total Docks":11,
    "Docks in Service":10,
    "Status":"In Service",
    "Location":"(41.751173, -87.585337)"
    }
  },
  {
    "type": "Feature",
    "geometry": {
       "type": "Point",
       "coordinates":  [ -87.614138,41.758361 ]
    },
    "properties": {
    "ID":571,
    "Station Name":"Vernon Ave & 75th St",
    "Address":"Vernon Ave & 75th St",
    "Total Docks":11,
    "Docks in Service":11,
    "Status":"In Service",
    "Location":"(41.758361, -87.614138)"
    }
  },
  {
    "type": "Feature",
    "geometry": {
       "type": "Point",
       "coordinates":  [ -87.600958115,41.799336263 ]
    },
    "properties": {
    "ID":418,
    "Station Name":"Ellis Ave & 53rd St",
    "Address":"Ellis Ave & 53rd St",
    "Total Docks":11,
    "Docks in Service":11,
    "Status":"In Service",
    "Location":"(41.79933626261, -87.6009581145)"
    }
  },
  {
    "type": "Feature",
    "geometry": {
       "type": "Point",
       "coordinates":  [ -87.679258,41.96325 ]
    },
    "properties": {
    "ID":316,
    "Station Name":"Damen Ave & Sunnyside Ave",
    "Address":"Damen Ave & Sunnyside Ave",
    "Total Docks":19,
    "Docks in Service":18,
    "Status":"In Service",
    "Location":"(41.96325, -87.679258)"
    }
  },
  {
    "type": "Feature",
    "geometry": {
       "type": "Point",
       "coordinates":  [ -87.631942,41.911974 ]
    },
    "properties": {
    "ID":126,
    "Station Name":"Clark St & North Ave",
    "Address":"Clark St & North Ave",
    "Total Docks":15,
    "Docks in Service":14,
    "Status":"In Service",
    "Location":"(41.911974, -87.631942)"
    }
  },
  {
    "type": "Feature",
    "geometry": {
       "type": "Point",
       "coordinates":  [ -87.695439,41.961068 ]
    },
    "properties": {
    "ID":481,
    "Station Name":"California Ave & Montrose Ave",
    "Address":"California Ave & Montrose Ave",
    "Total Docks":15,
    "Docks in Service":14,
    "Status":"In Service",
    "Location":"(41.961068, -87.695439)"
    }
  },
  {
    "type": "Feature",
    "geometry": {
       "type": "Point",
       "coordinates":  [ -87.705280487,41.909769302 ]
    },
    "properties": {
    "ID":509,
    "Station Name":"Troy St & North Ave",
    "Address":"Troy St & North Ave",
    "Total Docks":15,
    "Docks in Service":14,
    "Status":"In Service",
    "Location":"(41.90976930169, -87.7052804871)"
    }
  },
  {
    "type": "Feature",
    "geometry": {
       "type": "Point",
       "coordinates":  [ -87.565211,41.75182 ]
    },
    "properties": {
    "ID":579,
    "Station Name":"Phillips Ave & 79th St",
    "Address":"Phillips Ave & 79th St",
    "Total Docks":11,
    "Docks in Service":11,
    "Status":"In Service",
    "Location":"(41.75182, -87.565211)"
    }
  },
  {
    "type": "Feature",
    "geometry": {
       "type": "Point",
       "coordinates":  [ -87.654691,41.969517 ]
    },
    "properties": {
    "ID":323,
    "Station Name":"Sheridan Rd & Lawrence Ave",
    "Address":"Sheridan Rd & Lawrence Ave",
    "Total Docks":19,
    "Docks in Service":19,
    "Status":"In Service",
    "Location":"(41.969517, -87.654691)"
    }
  },
  {
    "type": "Feature",
    "geometry": {
       "type": "Point",
       "coordinates":  [ -87.62688,41.83104 ]
    },
    "properties": {
    "ID":184,
    "Station Name":"State St & 35th St",
    "Address":"State St & 35th St",
    "Total Docks":19,
    "Docks in Service":19,
    "Status":"In Service",
    "Location":"(41.83104, -87.62688)"
    }
  },
  {
    "type": "Feature",
    "geometry": {
       "type": "Point",
       "coordinates":  [ -87.665577,41.823465 ]
    },
    "properties": {
    "ID":547,
    "Station Name":"Ashland Ave & Pershing Rd",
    "Address":"Ashland Ave & Pershing Rd",
    "Total Docks":11,
    "Docks in Service":11,
    "Status":"In Service",
    "Location":"(41.823465, -87.665577)"
    }
  },
  {
    "type": "Feature",
    "geometry": {
       "type": "Point",
       "coordinates":  [ -87.597552,41.751294 ]
    },
    "properties": {
    "ID":576,
    "Station Name":"Greenwood Ave & 79th St",
    "Address":"Greenwood Ave & 79th St",
    "Total Docks":11,
    "Docks in Service":11,
    "Status":"In Service",
    "Location":"(41.751294, -87.597552)"
    }
  },
  {
    "type": "Feature",
    "geometry": {
       "type": "Point",
       "coordinates":  [ -87.616917925,41.765508006 ]
    },
    "properties": {
    "ID":393,
    "Station Name":"Calumet Ave & 71st St",
    "Address":"Calumet Ave & 71st St",
    "Total Docks":11,
    "Docks in Service":11,
    "Status":"In Service",
    "Location":"(41.76550800581, -87.616917925)"
    }
  },
  {
    "type": "Feature",
    "geometry": {
       "type": "Point",
       "coordinates":  [ -87.586460878,41.766492937 ]
    },
    "properties": {
    "ID":356,
    "Station Name":"Stony Island Ave & 71st St",
    "Address":"Stony Island Ave & 71st St",
    "Total Docks":11,
    "Docks in Service":11,
    "Status":"In Service",
    "Location":"(41.7664929373, -87.5864608775)"
    }
  },
  {
    "type": "Feature",
    "geometry": {
       "type": "Point",
       "coordinates":  [ -87.605026,41.753174 ]
    },
    "properties": {
    "ID":575,
    "Station Name":"Cottage Grove Ave & 78th St",
    "Address":"Cottage Grove Ave & 78th St",
    "Total Docks":11,
    "Docks in Service":11,
    "Status":"In Service",
    "Location":"(41.753174, -87.605026)"
    }
  },
  {
    "type": "Feature",
    "geometry": {
       "type": "Point",
       "coordinates":  [ -87.689307006,41.924632472 ]
    },
    "properties": {
    "ID":504,
    "Station Name":"Campbell Ave & Fullerton Ave",
    "Address":"Campbell Ave & Fullerton Ave",
    "Total Docks":15,
    "Docks in Service":14,
    "Status":"In Service",
    "Location":"(41.92463247165, -87.6893070063)"
    }
  },
  {
    "type": "Feature",
    "geometry": {
       "type": "Point",
       "coordinates":  [ -87.649633,41.877749 ]
    },
    "properties": {
    "ID":134,
    "Station Name":"Peoria St & Jackson Blvd",
    "Address":"Peoria St & Jackson Blvd",
    "Total Docks":19,
    "Docks in Service":18,
    "Status":"In Service",
    "Location":"(41.877749, -87.649633)"
    }
  },
  {
    "type": "Feature",
    "geometry": {
       "type": "Point",
       "coordinates":  [ -87.637536,41.898203 ]
    },
    "properties": {
    "ID":620,
    "Station Name":"Orleans St & Chestnut St (NEXT Apts)",
    "Address":"Orleans St & Chestnut St (NEXT Apts)",
    "Total Docks":15,
    "Docks in Service":14,
    "Status":"In Service",
    "Location":"(41.898203, -87.637536)"
    }
  },
  {
    "type": "Feature",
    "geometry": {
       "type": "Point",
       "coordinates":  [ -87.629746305,41.780079633 ]
    },
    "properties": {
    "ID":390,
    "Station Name":"Wentworth Ave & 63rd St",
    "Address":"Wentworth Ave & 63rd St",
    "Total Docks":11,
    "Docks in Service":11,
    "Status":"In Service",
    "Location":"(41.78007963264, -87.6297463052)"
    }
  },
  {
    "type": "Feature",
    "geometry": {
       "type": "Point",
       "coordinates":  [ -87.683593,41.991178 ]
    },
    "properties": {
    "ID":456,
    "Station Name":"2112 W Peterson Ave",
    "Address":"2112 W Peterson Ave",
    "Total Docks":15,
    "Docks in Service":15,
    "Status":"In Service",
    "Location":"(41.991178, -87.683593)"
    }
  },
  {
    "type": "Feature",
    "geometry": {
       "type": "Point",
       "coordinates":  [ -87.596471,41.795264 ]
    },
    "properties": {
    "ID":248,
    "Station Name":"Woodlawn Ave & 55th St",
    "Address":"Woodlawn Ave & 55th St",
    "Total Docks":19,
    "Docks in Service":19,
    "Status":"In Service",
    "Location":"(41.795264, -87.596471)"
    }
  },
  {
    "type": "Feature",
    "geometry": {
       "type": "Point",
       "coordinates":  [ -87.656936,41.918216 ]
    },
    "properties": {
    "ID":223,
    "Station Name":"Clifton Ave & Armitage Ave",
    "Address":"Clifton Ave & Armitage Ave",
    "Total Docks":15,
    "Docks in Service":14,
    "Status":"In Service",
    "Location":"(41.918216, -87.656936)"
    }
  },
  {
    "type": "Feature",
    "geometry": {
       "type": "Point",
       "coordinates":  [ -87.653106,41.910522 ]
    },
    "properties": {
    "ID":20,
    "Station Name":"Sheffield Ave & Kingsbury St",
    "Address":"Sheffield Ave & Kingsbury St",
    "Total Docks":15,
    "Docks in Service":15,
    "Status":"In Service",
    "Location":"(41.910522, -87.653106)"
    }
  },
  {
    "type": "Feature",
    "geometry": {
       "type": "Point",
       "coordinates":  [ -87.656526,41.80839 ]
    },
    "properties": {
    "ID":553,
    "Station Name":"Elizabeth St & 47th St",
    "Address":"Elizabeth St & 47th St",
    "Total Docks":11,
    "Docks in Service":11,
    "Status":"In Service",
    "Location":"(41.80839, -87.656526)"
    }
  },
  {
    "type": "Feature",
    "geometry": {
       "type": "Point",
       "coordinates":  [ -87.726491,41.885409 ]
    },
    "properties": {
    "ID":528,
    "Station Name":"Pulaski Rd & Lake St",
    "Address":"Pulaski Rd & Lake St",
    "Total Docks":11,
    "Docks in Service":10,
    "Status":"In Service",
    "Location":"(41.885409, -87.726491)"
    }
  },
  {
    "type": "Feature",
    "geometry": {
       "type": "Point",
       "coordinates":  [ -87.65464,41.96167 ]
    },
    "properties": {
    "ID":231,
    "Station Name":"Sheridan Rd & Montrose Ave",
    "Address":"Sheridan Rd & Montrose Ave",
    "Total Docks":23,
    "Docks in Service":22,
    "Status":"In Service",
    "Location":"(41.96167, -87.65464)"
    }
  },
  {
    "type": "Feature",
    "geometry": {
       "type": "Point",
       "coordinates":  [ -87.728231,41.924377 ]
    },
    "properties": {
    "ID":619,
    "Station Name":"Keystone Ave & Fullerton Ave",
    "Address":"Keystone Ave & Fullerton Ave",
    "Total Docks":11,
    "Docks in Service":11,
    "Status":"In Service",
    "Location":"(41.924377, -87.728231)"
    }
  },
  {
    "type": "Feature",
    "geometry": {
       "type": "Point",
       "coordinates":  [ -87.621857,41.838842 ]
    },
    "properties": {
    "ID":272,
    "Station Name":"Indiana Ave & 31st St",
    "Address":"Indiana Ave & 31st St",
    "Total Docks":11,
    "Docks in Service":11,
    "Status":"In Service",
    "Location":"(41.838842, -87.621857)"
    }
  },
  {
    "type": "Feature",
    "geometry": {
       "type": "Point",
       "coordinates":  [ -87.575839359,41.757120068 ]
    },
    "properties": {
    "ID":395,
    "Station Name":"Jeffery Blvd & 76th St",
    "Address":"Jeffery Blvd & 76th St",
    "Total Docks":11,
    "Docks in Service":11,
    "Status":"In Service",
    "Location":"(41.75712006802, -87.5758393587)"
    }
  },
  {
    "type": "Feature",
    "geometry": {
       "type": "Point",
       "coordinates":  [ -87.56644,41.758768 ]
    },
    "properties": {
    "ID":396,
    "Station Name":"Yates Blvd & 75th St",
    "Address":"Yates Blvd & 75th St",
    "Total Docks":11,
    "Docks in Service":11,
    "Status":"In Service",
    "Location":"(41.758768, -87.56644)"
    }
  },
  {
    "type": "Feature",
    "geometry": {
       "type": "Point",
       "coordinates":  [ -87.604786,41.744053 ]
    },
    "properties": {
    "ID":585,
    "Station Name":"Cottage Grove Ave & 83rd St",
    "Address":"Cottage Grove Ave & 83rd St",
    "Total Docks":11,
    "Docks in Service":10,
    "Status":"In Service",
    "Location":"(41.744053, -87.604786)"
    }
  },
  {
    "type": "Feature",
    "geometry": {
       "type": "Point",
       "coordinates":  [ -87.664699,41.803023 ]
    },
    "properties": {
    "ID":555,
    "Station Name":"Ashland Ave & 50th St",
    "Address":"Ashland Ave & 50th St",
    "Total Docks":11,
    "Docks in Service":11,
    "Status":"In Service",
    "Location":"(41.803023, -87.664699)"
    }
  },
  {
    "type": "Feature",
    "geometry": {
       "type": "Point",
       "coordinates":  [ -87.586005,41.746559 ]
    },
    "properties": {
    "ID":583,
    "Station Name":"Stony Island Ave & 82nd St",
    "Address":"Stony Island Ave & 82nd St",
    "Total Docks":11,
    "Docks in Service":9,
    "Status":"In Service",
    "Location":"(41.746559, -87.586005)"
    }
  },
  {
    "type": "Feature",
    "geometry": {
       "type": "Point",
       "coordinates":  [ -87.63481935,41.816207679 ]
    },
    "properties": {
    "ID":409,
    "Station Name":"Shields Ave & 43rd St",
    "Address":"Shields Ave & 43rd St",
    "Total Docks":11,
    "Docks in Service":11,
    "Status":"In Service",
    "Location":"(41.81620767856, -87.6348193497)"
    }
  },
  {
    "type": "Feature",
    "geometry": {
       "type": "Point",
       "coordinates":  [ -87.683392,41.805661 ]
    },
    "properties": {
    "ID":594,
    "Station Name":"Western Blvd & 48th Pl",
    "Address":"Western Blvd & 48th Pl",
    "Total Docks":11,
    "Docks in Service":11,
    "Status":"In Service",
    "Location":"(41.805661, -87.683392)"
    }
  },
  {
    "type": "Feature",
    "geometry": {
       "type": "Point",
       "coordinates":  [ -87.638677,41.911386 ]
    },
    "properties": {
    "ID":118,
    "Station Name":"Sedgwick St & North Ave",
    "Address":"Sedgwick St & North Ave",
    "Total Docks":19,
    "Docks in Service":18,
    "Status":"In Service",
    "Location":"(41.911386, -87.638677)"
    }
  },
  {
    "type": "Feature",
    "geometry": {
       "type": "Point",
       "coordinates":  [ -87.631501,41.907993 ]
    },
    "properties": {
    "ID":301,
    "Station Name":"Clark St & Schiller St",
    "Address":"Clark St & Schiller St",
    "Total Docks":18,
    "Docks in Service":17,
    "Status":"In Service",
    "Location":"(41.907993, -87.631501)"
    }
  },
  {
    "type": "Feature",
    "geometry": {
       "type": "Point",
       "coordinates":  [ -87.634793,41.878724 ]
    },
    "properties": {
    "ID":286,
    "Station Name":"Franklin St & Quincy St",
    "Address":"Franklin St & Quincy St",
    "Total Docks":23,
    "Docks in Service":22,
    "Status":"In Service",
    "Location":"(41.878724, -87.634793)"
    }
  },
  {
    "type": "Feature",
    "geometry": {
       "type": "Point",
       "coordinates":  [ -87.65304,41.94018 ]
    },
    "properties": {
    "ID":117,
    "Station Name":"Wilton Ave & Belmont Ave",
    "Address":"Wilton Ave & Belmont Ave",
    "Total Docks":27,
    "Docks in Service":25,
    "Status":"In Service",
    "Location":"(41.94018, -87.65304)"
    }
  },
  {
    "type": "Feature",
    "geometry": {
       "type": "Point",
       "coordinates":  [ -87.599034,41.744123 ]
    },
    "properties": {
    "ID":584,
    "Station Name":"Ellis Ave & 83rd St",
    "Address":"Ellis Ave & 83rd St",
    "Total Docks":11,
    "Docks in Service":11,
    "Status":"In Service",
    "Location":"(41.744123, -87.599034)"
    }
  },
  {
    "type": "Feature",
    "geometry": {
       "type": "Point",
       "coordinates":  [ -87.565687572,41.766409457 ]
    },
    "properties": {
    "ID":12,
    "Station Name":"South Shore Dr & 71st St",
    "Address":"MLSW",
    "Total Docks":15,
    "Docks in Service":14,
    "Status":"In Service",
    "Location":"(41.7664094567, -87.5656875719)"
    }
  },
  {
    "type": "Feature",
    "geometry": {
       "type": "Point",
       "coordinates":  [ -87.67718,41.808227 ]
    },
    "properties": {
    "ID":551,
    "Station Name":"Hoyne Ave & 47th St",
    "Address":"Hoyne Ave & 47th St",
    "Total Docks":11,
    "Docks in Service":11,
    "Status":"In Service",
    "Location":"(41.808227, -87.67718)"
    }
  },
  {
    "type": "Feature",
    "geometry": {
       "type": "Point",
       "coordinates":  [ -87.590368,41.802562 ]
    },
    "properties": {
    "ID":121,
    "Station Name":"Blackstone Ave & Hyde Park Blvd",
    "Address":"Blackstone Ave & Hyde Park Blvd",
    "Total Docks":19,
    "Docks in Service":19,
    "Status":"In Service",
    "Location":"(41.802562, -87.590368)"
    }
  },
  {
    "type": "Feature",
    "geometry": {
       "type": "Point",
       "coordinates":  [ -87.57611976,41.781016372 ]
    },
    "properties": {
    "ID":101,
    "Station Name":"63rd St Beach",
    "Address":"63rd St Beach",
    "Total Docks":14,
    "Docks in Service":14,
    "Status":"In Service",
    "Location":"(41.78101637196, -87.5761197602)"
    }
  },
  {
    "type": "Feature",
    "geometry": {
       "type": "Point",
       "coordinates":  [ -87.635633,41.896776 ]
    },
    "properties": {
    "ID":31,
    "Station Name":"Franklin St & Chicago Ave",
    "Address":"805 N. Franklin St",
    "Total Docks":23,
    "Docks in Service":22,
    "Status":"In Service",
    "Location":"(41.896776, -87.635633)"
    }
  },
  {
    "type": "Feature",
    "geometry": {
       "type": "Point",
       "coordinates":  [ -87.682437,41.917805 ]
    },
    "properties": {
    "ID":309,
    "Station Name":"Leavitt St & Armitage Ave",
    "Address":"Leavitt St & Armitage Ave",
    "Total Docks":11,
    "Docks in Service":11,
    "Status":"In Service",
    "Location":"(41.917805, -87.682437)"
    }
  },
  {
    "type": "Feature",
    "geometry": {
       "type": "Point",
       "coordinates":  [ -87.649807,41.874754 ]
    },
    "properties": {
    "ID":109,
    "Station Name":"900 W Harrison St",
    "Address":"900 W Harrison St",
    "Total Docks":19,
    "Docks in Service":18,
    "Status":"In Service",
    "Location":"(41.874754, -87.649807)"
    }
  },
  {
    "type": "Feature",
    "geometry": {
       "type": "Point",
       "coordinates":  [ -87.640949133,41.871466518 ]
    },
    "properties": {
    "ID":103,
    "Station Name":"Clinton St & Polk St (*)",
    "Address":"Clinton St & Polk St (*)",
    "Total Docks":16,
    "Docks in Service":15,
    "Status":"In Service",
    "Location":"(41.87146651779, -87.6409491327)"
    }
  },
  {
    "type": "Feature",
    "geometry": {
       "type": "Point",
       "coordinates":  [ -87.629318,41.893992 ]
    },
    "properties": {
    "ID":110,
    "Station Name":"Dearborn St & Erie St",
    "Address":"Dearborn St & Erie St",
    "Total Docks":27,
    "Docks in Service":25,
    "Status":"In Service",
    "Location":"(41.893992, -87.629318)"
    }
  },
  {
    "type": "Feature",
    "geometry": {
       "type": "Point",
       "coordinates":  [ -87.65222,41.91844 ]
    },
    "properties": {
    "ID":113,
    "Station Name":"Bissell St & Armitage Ave",
    "Address":"Bissell St & Armitage Ave",
    "Total Docks":15,
    "Docks in Service":15,
    "Status":"In Service",
    "Location":"(41.91844, -87.65222)"
    }
  },
  {
    "type": "Feature",
    "geometry": {
       "type": "Point",
       "coordinates":  [ -87.61805358,41.802294651 ]
    },
    "properties": {
    "ID":415,
    "Station Name":"Calumet Ave & 51st St",
    "Address":"Calumet Ave & 51st St",
    "Total Docks":15,
    "Docks in Service":15,
    "Status":"In Service",
    "Location":"(41.80229465088, -87.6180535802)"
    }
  },
  {
    "type": "Feature",
    "geometry": {
       "type": "Point",
       "coordinates":  [ -87.619412462,41.816658893 ]
    },
    "properties": {
    "ID":410,
    "Station Name":"Prairie Ave & 43rd St",
    "Address":"Prairie Ave & 43rd St",
    "Total Docks":15,
    "Docks in Service":15,
    "Status":"In Service",
    "Location":"(41.81665889302, -87.6194124619)"
    }
  },
  {
    "type": "Feature",
    "geometry": {
       "type": "Point",
       "coordinates":  [ -87.645616554,41.808133915 ]
    },
    "properties": {
    "ID":411,
    "Station Name":"Halsted St & 47th Pl",
    "Address":"Halsted St & 47th Pl",
    "Total Docks":11,
    "Docks in Service":11,
    "Status":"In Service",
    "Location":"(41.80813391481, -87.6456165545)"
    }
  },
  {
    "type": "Feature",
    "geometry": {
       "type": "Point",
       "coordinates":  [ -87.633449288,41.809317709 ]
    },
    "properties": {
    "ID":412,
    "Station Name":"Princeton Ave & 47th St",
    "Address":"Princeton Ave & 47th St",
    "Total Docks":11,
    "Docks in Service":11,
    "Status":"In Service",
    "Location":"(41.80931770924, -87.633449288)"
    }
  },
  {
    "type": "Feature",
    "geometry": {
       "type": "Point",
       "coordinates":  [ -87.606755,41.809855 ]
    },
    "properties": {
    "ID":336,
    "Station Name":"Cottage Grove Ave & 47th St",
    "Address":"Off Street",
    "Total Docks":15,
    "Docks in Service":15,
    "Status":"In Service",
    "Location":"(41.809855, -87.606755)"
    }
  },
  {
    "type": "Feature",
    "geometry": {
       "type": "Point",
       "coordinates":  [ -87.575225,41.743921 ]
    },
    "properties": {
    "ID":588,
    "Station Name":"South Chicago Ave & 83rd St",
    "Address":"South Chicago Ave & 83rd St",
    "Total Docks":11,
    "Docks in Service":11,
    "Status":"In Service",
    "Location":"(41.743921, -87.575225)"
    }
  },
  {
    "type": "Feature",
    "geometry": {
       "type": "Point",
       "coordinates":  [ -87.638888,41.922167 ]
    },
    "properties": {
    "ID":143,
    "Station Name":"Sedgwick St & Webster Ave",
    "Address":"Sedgwick St & Webster Ave",
    "Total Docks":15,
    "Docks in Service":15,
    "Status":"In Service",
    "Location":"(41.922167, -87.638888)"
    }
  },
  {
    "type": "Feature",
    "geometry": {
       "type": "Point",
       "coordinates":  [ -87.645143,41.838198 ]
    },
    "properties": {
    "ID":339,
    "Station Name":"Emerald Ave & 31st St",
    "Address":"Emerald Ave & 31st St",
    "Total Docks":11,
    "Docks in Service":11,
    "Status":"In Service",
    "Location":"(41.838198, -87.645143)"
    }
  },
  {
    "type": "Feature",
    "geometry": {
       "type": "Point",
       "coordinates":  [ -87.661535,41.857556 ]
    },
    "properties": {
    "ID":129,
    "Station Name":"Blue Island Ave & 18th St",
    "Address":"Blue Island Ave & 18th St",
    "Total Docks":15,
    "Docks in Service":14,
    "Status":"In Service",
    "Location":"(41.857556, -87.661535)"
    }
  },
  {
    "type": "Feature",
    "geometry": {
       "type": "Point",
       "coordinates":  [ -87.61793,41.8349 ]
    },
    "properties": {
    "ID":149,
    "Station Name":"Calumet Ave & 33rd St",
    "Address":"Calumet Ave & 33rd St",
    "Total Docks":11,
    "Docks in Service":11,
    "Status":"In Service",
    "Location":"(41.8349, -87.61793)"
    }
  },
  {
    "type": "Feature",
    "geometry": {
       "type": "Point",
       "coordinates":  [ -87.693033,41.920195 ]
    },
    "properties": {
    "ID":222,
    "Station Name":"Milwaukee Ave & Rockwell St",
    "Address":"Milwaukee Ave & Rockwell St",
    "Total Docks":19,
    "Docks in Service":17,
    "Status":"In Service",
    "Location":"(41.920195, -87.693033)"
    }
  },
  {
    "type": "Feature",
    "geometry": {
       "type": "Point",
       "coordinates":  [ -87.678435,41.903266 ]
    },
    "properties": {
    "ID":130,
    "Station Name":"Damen Ave & Division St",
    "Address":"Damen Ave & Division St",
    "Total Docks":19,
    "Docks in Service":19,
    "Status":"In Service",
    "Location":"(41.903266, -87.678435)"
    }
  },
  {
    "type": "Feature",
    "geometry": {
       "type": "Point",
       "coordinates":  [ -87.64665,41.85378 ]
    },
    "properties": {
    "ID":135,
    "Station Name":"Halsted St & 21st St",
    "Address":"Halsted St & 21st St",
    "Total Docks":11,
    "Docks in Service":11,
    "Status":"In Service",
    "Location":"(41.85378, -87.64665)"
    }
  },
  {
    "type": "Feature",
    "geometry": {
       "type": "Point",
       "coordinates":  [ -87.706303744,41.884603285 ]
    },
    "properties": {
    "ID":377,
    "Station Name":"Kedzie Ave & Lake St",
    "Address":"Kedzie Ave & Lake St",
    "Total Docks":15,
    "Docks in Service":15,
    "Status":"In Service",
    "Location":"(41.88460328501, -87.7063037436)"
    }
  },
  {
    "type": "Feature",
    "geometry": {
       "type": "Point",
       "coordinates":  [ -87.686112808,41.879787709 ]
    },
    "properties": {
    "ID":381,
    "Station Name":"Western Ave & Monroe St",
    "Address":"Western Ave & Monroe St",
    "Total Docks":15,
    "Docks in Service":15,
    "Status":"In Service",
    "Location":"(41.8797877089, -87.686112808)"
    }
  },
  {
    "type": "Feature",
    "geometry": {
       "type": "Point",
       "coordinates":  [ -87.639507,41.880381 ]
    },
    "properties": {
    "ID":191,
    "Station Name":"Canal St & Monroe St (*)",
    "Address":"Canal St & Monroe St (*)",
    "Total Docks":28,
    "Docks in Service":28,
    "Status":"In Service",
    "Location":"(41.880381, -87.639507)"
    }
  },
  {
    "type": "Feature",
    "geometry": {
       "type": "Point",
       "coordinates":  [ -87.613533,41.836208 ]
    },
    "properties": {
    "ID":263,
    "Station Name":"Rhodes Ave & 32nd St",
    "Address":"Rhodes Ave & 32nd St",
    "Total Docks":11,
    "Docks in Service":11,
    "Status":"In Service",
    "Location":"(41.836208, -87.613533)"
    }
  },
  {
    "type": "Feature",
    "geometry": {
       "type": "Point",
       "coordinates":  [ -87.633502,41.872596 ]
    },
    "properties": {
    "ID":175,
    "Station Name":"Wells St & Polk St",
    "Address":"Wells St & Polk St",
    "Total Docks":19,
    "Docks in Service":19,
    "Status":"In Service",
    "Location":"(41.872596, -87.633502)"
    }
  },
  {
    "type": "Feature",
    "geometry": {
       "type": "Point",
       "coordinates":  [ -87.668745,41.857901 ]
    },
    "properties": {
    "ID":205,
    "Station Name":"Paulina St & 18th St",
    "Address":"Paulina St & 18th St",
    "Total Docks":15,
    "Docks in Service":15,
    "Status":"In Service",
    "Location":"(41.857901, -87.668745)"
    }
  },
  {
    "type": "Feature",
    "geometry": {
       "type": "Point",
       "coordinates":  [ -87.608218,41.838556 ]
    },
    "properties": {
    "ID":150,
    "Station Name":"Fort Dearborn Dr & 31st St",
    "Address":"Fort Dearborn Dr & 31st St",
    "Total Docks":27,
    "Docks in Service":27,
    "Status":"In Service",
    "Location":"(41.838556, -87.608218)"
    }
  },
  {
    "type": "Feature",
    "geometry": {
       "type": "Point",
       "coordinates":  [ -87.625125,41.882134 ]
    },
    "properties": {
    "ID":197,
    "Station Name":"Michigan Ave & Madison St",
    "Address":"Michigan Ave & Madison St",
    "Total Docks":19,
    "Docks in Service":18,
    "Status":"In Service",
    "Location":"(41.882134, -87.625125)"
    }
  },
  {
    "type": "Feature",
    "geometry": {
       "type": "Point",
       "coordinates":  [ -87.625813,41.834734 ]
    },
    "properties": {
    "ID":148,
    "Station Name":"State St & 33rd St",
    "Address":"State St & 33rd St",
    "Total Docks":15,
    "Docks in Service":14,
    "Status":"In Service",
    "Location":"(41.834734, -87.625813)"
    }
  },
  {
    "type": "Feature",
    "geometry": {
       "type": "Point",
       "coordinates":  [ -87.637321,41.883132 ]
    },
    "properties": {
    "ID":18,
    "Station Name":"Wacker Dr & Washington St",
    "Address":"Wacker Dr & Washington St",
    "Total Docks":19,
    "Docks in Service":18,
    "Status":"In Service",
    "Location":"(41.883132, -87.637321)"
    }
  },
  {
    "type": "Feature",
    "geometry": {
       "type": "Point",
       "coordinates":  [ -87.667747,41.90345 ]
    },
    "properties": {
    "ID":210,
    "Station Name":"Ashland Ave & Division St",
    "Address":"Ashland Ave & Division St",
    "Total Docks":27,
    "Docks in Service":27,
    "Status":"In Service",
    "Location":"(41.90345, -87.667747)"
    }
  },
  {
    "type": "Feature",
    "geometry": {
       "type": "Point",
       "coordinates":  [ -87.705866,41.961041 ]
    },
    "properties": {
    "ID":480,
    "Station Name":"Albany Ave & Montrose Ave",
    "Address":"Albany Ave & Montrose Ave",
    "Total Docks":15,
    "Docks in Service":15,
    "Status":"In Service",
    "Location":"(41.961041, -87.705866)"
    }
  },
  {
    "type": "Feature",
    "geometry": {
       "type": "Point",
       "coordinates":  [ -87.765469,41.887664 ]
    },
    "properties": {
    "ID":531,
    "Station Name":"Central Ave & Lake St",
    "Address":"Central Ave & Lake St",
    "Total Docks":11,
    "Docks in Service":11,
    "Status":"In Service",
    "Location":"(41.887664, -87.765469)"
    }
  },
  {
    "type": "Feature",
    "geometry": {
       "type": "Point",
       "coordinates":  [ -87.664169,41.912919 ]
    },
    "properties": {
    "ID":315,
    "Station Name":"Elston Ave & Wabansia Ave",
    "Address":"Elston Ave & Wabansia Ave",
    "Total Docks":23,
    "Docks in Service":22,
    "Status":"In Service",
    "Location":"(41.912919, -87.664169)"
    }
  },
  {
    "type": "Feature",
    "geometry": {
       "type": "Point",
       "coordinates":  [ -87.640826,41.85795 ]
    },
    "properties": {
    "ID":170,
    "Station Name":"Clinton St & 18th St",
    "Address":"Clinton St & 18th St",
    "Total Docks":15,
    "Docks in Service":15,
    "Status":"In Service",
    "Location":"(41.85795, -87.640826)"
    }
  },
  {
    "type": "Feature",
    "geometry": {
       "type": "Point",
       "coordinates":  [ -87.627542,41.856594 ]
    },
    "properties": {
    "ID":178,
    "Station Name":"State St & 19th St",
    "Address":"State St & 19th St",
    "Total Docks":15,
    "Docks in Service":15,
    "Status":"In Service",
    "Location":"(41.856594, -87.627542)"
    }
  },
  {
    "type": "Feature",
    "geometry": {
       "type": "Point",
       "coordinates":  [ -87.622481,41.845687 ]
    },
    "properties": {
    "ID":147,
    "Station Name":"Indiana Ave & 26th St",
    "Address":"Indiana Ave & 26th St",
    "Total Docks":15,
    "Docks in Service":15,
    "Status":"In Service",
    "Location":"(41.845687, -87.622481)"
    }
  },
  {
    "type": "Feature",
    "geometry": {
       "type": "Point",
       "coordinates":  [ -87.705073032,41.853533632 ]
    },
    "properties": {
    "ID":439,
    "Station Name":"Kedzie Ave & 21st St",
    "Address":"Kedzie Ave & 21st St",
    "Total Docks":11,
    "Docks in Service":10,
    "Status":"In Service",
    "Location":"(41.85353363213, -87.7050730318)"
    }
  },
  {
    "type": "Feature",
    "geometry": {
       "type": "Point",
       "coordinates":  [ -87.69336964,41.990236029 ]
    },
    "properties": {
    "ID":455,
    "Station Name":"Maplewood Ave & Peterson Ave",
    "Address":"Maplewood Ave & Peterson Ave",
    "Total Docks":11,
    "Docks in Service":11,
    "Status":"In Service",
    "Location":"(41.99023602867, -87.6933696402)"
    }
  },
  {
    "type": "Feature",
    "geometry": {
       "type": "Point",
       "coordinates":  [ -87.61330783,41.784141693 ]
    },
    "properties": {
    "ID":431,
    "Station Name":"Eberhart Ave & 61st St",
    "Address":"Eberhart Ave & 61st St",
    "Total Docks":11,
    "Docks in Service":10,
    "Status":"In Service",
    "Location":"(41.78414169317, -87.6133078304)"
    }
  },
  {
    "type": "Feature",
    "geometry": {
       "type": "Point",
       "coordinates":  [ -87.669886,41.871514 ]
    },
    "properties": {
    "ID":261,
    "Station Name":"Hermitage Ave & Polk St",
    "Address":"Hermitage Ave & Polk St",
    "Total Docks":15,
    "Docks in Service":14,
    "Status":"In Service",
    "Location":"(41.871514, -87.669886)"
    }
  },
  {
    "type": "Feature",
    "geometry": {
       "type": "Point",
       "coordinates":  [ -87.740569,41.953733 ]
    },
    "properties": {
    "ID":590,
    "Station Name":"Kilbourn Ave & Irving Park Rd",
    "Address":"Kilbourn Ave & Irving Park Rd",
    "Total Docks":15,
    "Docks in Service":15,
    "Status":"In Service",
    "Location":"(41.953733, -87.740569)"
    }
  },
  {
    "type": "Feature",
    "geometry": {
       "type": "Point",
       "coordinates":  [ -87.6071,41.822985 ]
    },
    "properties": {
    "ID":265,
    "Station Name":"Cottage Grove Ave & Oakwood Blvd",
    "Address":"Cottage Grove Ave & Oakwood Blvd",
    "Total Docks":15,
    "Docks in Service":15,
    "Status":"In Service",
    "Location":"(41.822985, -87.6071)"
    }
  },
  {
    "type": "Feature",
    "geometry": {
       "type": "Point",
       "coordinates":  [ -87.664069,41.768726 ]
    },
    "properties": {
    "ID":566,
    "Station Name":"Ashland Ave & 69th St",
    "Address":"Ashland Ave & 69th St",
    "Total Docks":11,
    "Docks in Service":11,
    "Status":"In Service",
    "Location":"(41.768726, -87.664069)"
    }
  },
  {
    "type": "Feature",
    "geometry": {
       "type": "Point",
       "coordinates":  [ -87.71547,41.875679 ]
    },
    "properties": {
    "ID":533,
    "Station Name":"Central Park Blvd & 5th Ave",
    "Address":"Central Park Blvd & 5th Ave",
    "Total Docks":11,
    "Docks in Service":10,
    "Status":"In Service",
    "Location":"(41.875679, -87.71547)"
    }
  },
  {
    "type": "Feature",
    "geometry": {
       "type": "Point",
       "coordinates":  [ -87.70103,41.889727 ]
    },
    "properties": {
    "ID":375,
    "Station Name":"Sacramento Blvd & Franklin Blvd",
    "Address":"Sacramento Blvd & Franklin Blvd",
    "Total Docks":11,
    "Docks in Service":11,
    "Status":"In Service",
    "Location":"(41.889727, -87.70103)"
    }
  },
  {
    "type": "Feature",
    "geometry": {
       "type": "Point",
       "coordinates":  [ -87.633879,41.856802 ]
    },
    "properties": {
    "ID":218,
    "Station Name":"Wells St & 19th St",
    "Address":"Wells St & 19th St",
    "Total Docks":11,
    "Docks in Service":10,
    "Status":"In Service",
    "Location":"(41.856802, -87.633879)"
    }
  },
  {
    "type": "Feature",
    "geometry": {
       "type": "Point",
       "coordinates":  [ -87.648625,41.867324 ]
    },
    "properties": {
    "ID":55,
    "Station Name":"Halsted St & Roosevelt Rd",
    "Address":"850 W Roosevelt Rd",
    "Total Docks":23,
    "Docks in Service":23,
    "Status":"In Service",
    "Location":"(41.867324, -87.648625)"
    }
  },
  {
    "type": "Feature",
    "geometry": {
       "type": "Point",
       "coordinates":  [ -87.665609859,41.839208684 ]
    },
    "properties": {
    "ID":368,
    "Station Name":"Ashland Ave & Archer Ave",
    "Address":"Ashland Ave & Archer Ave",
    "Total Docks":15,
    "Docks in Service":14,
    "Status":"In Service",
    "Location":"(41.83920868403, -87.6656098589)"
    }
  },
  {
    "type": "Feature",
    "geometry": {
       "type": "Point",
       "coordinates":  [ -87.691165041,41.961525933 ]
    },
    "properties": {
    "ID":482,
    "Station Name":"Campbell Ave & Montrose Ave",
    "Address":"Campbell Ave & Montrose Ave",
    "Total Docks":15,
    "Docks in Service":13,
    "Status":"In Service",
    "Location":"(41.96152593287, -87.6911650414)"
    }
  },
  {
    "type": "Feature",
    "geometry": {
       "type": "Point",
       "coordinates":  [ -87.634266,41.889906 ]
    },
    "properties": {
    "ID":212,
    "Station Name":"Wells St & Hubbard St",
    "Address":"Wells St & Hubbard St",
    "Total Docks":31,
    "Docks in Service":31,
    "Status":"In Service",
    "Location":"(41.889906, -87.634266)"
    }
  },
  {
    "type": "Feature",
    "geometry": {
       "type": "Point",
       "coordinates":  [ -87.6554864,41.8694821 ]
    },
    "properties": {
    "ID":22,
    "Station Name":"May St & Taylor St",
    "Address":"1134 W. Taylor St",
    "Total Docks":15,
    "Docks in Service":13,
    "Status":"In Service",
    "Location":"(41.8694821, -87.6554864)"
    }
  },
  {
    "type": "Feature",
    "geometry": {
       "type": "Point",
       "coordinates":  [ -87.66394,41.94815 ]
    },
    "properties": {
    "ID":227,
    "Station Name":"Southport Ave & Waveland Ave",
    "Address":"Southport Ave & Waveland Ave",
    "Total Docks":23,
    "Docks in Service":21,
    "Status":"In Service",
    "Location":"(41.94815, -87.66394)"
    }
  },
  {
    "type": "Feature",
    "geometry": {
       "type": "Point",
       "coordinates":  [ -87.629791036,41.879356359 ]
    },
    "properties": {
    "ID":37,
    "Station Name":"Dearborn St & Adams St",
    "Address":"59 W. Adams St",
    "Total Docks":19,
    "Docks in Service":16,
    "Status":"In Service",
    "Location":"(41.8793563587, -87.6297910363)"
    }
  },
  {
    "type": "Feature",
    "geometry": {
       "type": "Point",
       "coordinates":  [ -87.723777364,41.930585371 ]
    },
    "properties": {
    "ID":499,
    "Station Name":"Kosciuszko Park",
    "Address":"Kosciuszko Park",
    "Total Docks":15,
    "Docks in Service":15,
    "Status":"In Service",
    "Location":"(41.93058537138, -87.7237773635)"
    }
  },
  {
    "type": "Feature",
    "geometry": {
       "type": "Point",
       "coordinates":  [ -87.690492239,42.008594397 ]
    },
    "properties": {
    "ID":467,
    "Station Name":"Western Ave & Lunt Ave",
    "Address":"Western Ave & Lunt Ave",
    "Total Docks":15,
    "Docks in Service":15,
    "Status":"In Service",
    "Location":"(42.0085943972, -87.6904922389)"
    }
  },
  {
    "type": "Feature",
    "geometry": {
       "type": "Point",
       "coordinates":  [ -87.700825,41.965875 ]
    },
    "properties": {
    "ID":477,
    "Station Name":"Manor Ave & Leland Ave",
    "Address":"Manor Ave & Leland Ave",
    "Total Docks":11,
    "Docks in Service":11,
    "Status":"In Service",
    "Location":"(41.965875, -87.700825)"
    }
  },
  {
    "type": "Feature",
    "geometry": {
       "type": "Point",
       "coordinates":  [ -87.698007756,41.938428791 ]
    },
    "properties": {
    "ID":498,
    "Station Name":"California Ave & Fletcher St",
    "Address":"California Ave & Fletcher St",
    "Total Docks":19,
    "Docks in Service":19,
    "Status":"In Service",
    "Location":"(41.93842879148, -87.698007756)"
    }
  },
  {
    "type": "Feature",
    "geometry": {
       "type": "Point",
       "coordinates":  [ -87.728970101,41.961108016 ]
    },
    "properties": {
    "ID":495,
    "Station Name":"Keystone Ave & Montrose Ave",
    "Address":"Keystone Ave & Montrose Ave",
    "Total Docks":15,
    "Docks in Service":15,
    "Status":"In Service",
    "Location":"(41.96110801623, -87.7289701012)"
    }
  },
  {
    "type": "Feature",
    "geometry": {
       "type": "Point",
       "coordinates":  [ -87.684146,41.962391 ]
    },
    "properties": {
    "ID":243,
    "Station Name":"Lincoln Ave & Leavitt St",
    "Address":"Lincoln Ave & Leavitt St",
    "Total Docks":15,
    "Docks in Service":14,
    "Status":"In Service",
    "Location":"(41.962391, -87.684146)"
    }
  },
  {
    "type": "Feature",
    "geometry": {
       "type": "Point",
       "coordinates":  [ -87.617,41.842052 ]
    },
    "properties": {
    "ID":237,
    "Station Name":"MLK Jr Dr & 29th St",
    "Address":"MLK Jr Dr & 29th St",
    "Total Docks":19,
    "Docks in Service":19,
    "Status":"In Service",
    "Location":"(41.842052, -87.617)"
    }
  },
  {
    "type": "Feature",
    "geometry": {
       "type": "Point",
       "coordinates":  [ -87.692502559,41.974911297 ]
    },
    "properties": {
    "ID":472,
    "Station Name":"Lincoln Ave & Winona St",
    "Address":"Lincoln Ave & Winona St",
    "Total Docks":15,
    "Docks in Service":14,
    "Status":"In Service",
    "Location":"(41.97491129677, -87.6925025594)"
    }
  },
  {
    "type": "Feature",
    "geometry": {
       "type": "Point",
       "coordinates":  [ -87.654372,41.783189 ]
    },
    "properties": {
    "ID":562,
    "Station Name":"Racine Ave & 61st St",
    "Address":"Racine Ave & 61st St",
    "Total Docks":11,
    "Docks in Service":10,
    "Status":"In Service",
    "Location":"(41.783189, -87.654372)"
    }
  },
  {
    "type": "Feature",
    "geometry": {
       "type": "Point",
       "coordinates":  [ -87.655073,41.794228 ]
    },
    "properties": {
    "ID":559,
    "Station Name":"Racine Ave & Garfield Blvd",
    "Address":"Racine Ave & Garfield Blvd",
    "Total Docks":11,
    "Docks in Service":10,
    "Status":"In Service",
    "Location":"(41.794228, -87.655073)"
    }
  },
  {
    "type": "Feature",
    "geometry": {
       "type": "Point",
       "coordinates":  [ -87.666215,41.786833 ]
    },
    "properties": {
    "ID":560,
    "Station Name":"Marshfield Ave & 59th St",
    "Address":"Marshfield Ave & 59th St",
    "Total Docks":11,
    "Docks in Service":11,
    "Status":"In Service",
    "Location":"(41.786833, -87.666215)"
    }
  },
  {
    "type": "Feature",
    "geometry": {
       "type": "Point",
       "coordinates":  [ -87.675478,41.794087 ]
    },
    "properties": {
    "ID":557,
    "Station Name":"Seeley Ave & Garfield Blvd",
    "Address":"Seeley Ave & Garfield Blvd",
    "Total Docks":11,
    "Docks in Service":11,
    "Status":"In Service",
    "Location":"(41.794087, -87.675478)"
    }
  },
  {
    "type": "Feature",
    "geometry": {
       "type": "Point",
       "coordinates":  [ -87.685131441,41.841517708 ]
    },
    "properties": {
    "ID":446,
    "Station Name":"Western Ave & 28th St",
    "Address":"Western Ave & 28th St",
    "Total Docks":11,
    "Docks in Service":11,
    "Status":"In Service",
    "Location":"(41.84151770807, -87.6851314409)"
    }
  },
  {
    "type": "Feature",
    "geometry": {
       "type": "Point",
       "coordinates":  [ -87.664429,41.792822 ]
    },
    "properties": {
    "ID":558,
    "Station Name":"Ashland Ave & Garfield Blvd",
    "Address":"Ashland Ave & Garfield Blvd",
    "Total Docks":11,
    "Docks in Service":11,
    "Status":"In Service",
    "Location":"(41.792822, -87.664429)"
    }
  },
  {
    "type": "Feature",
    "geometry": {
       "type": "Point",
       "coordinates":  [ -87.619153741,41.854184249 ]
    },
    "properties": {
    "ID":370,
    "Station Name":"Calumet Ave & 21st St",
    "Address":"Calumet Ave & 21st St",
    "Total Docks":15,
    "Docks in Service":15,
    "Status":"In Service",
    "Location":"(41.85418424947, -87.6191537415)"
    }
  },
  {
    "type": "Feature",
    "geometry": {
       "type": "Point",
       "coordinates":  [ -87.643749,41.918084 ]
    },
    "properties": {
    "ID":288,
    "Station Name":"Larrabee St & Armitage Ave",
    "Address":"Off Street",
    "Total Docks":15,
    "Docks in Service":14,
    "Status":"In Service",
    "Location":"(41.918084, -87.643749)"
    }
  },
  {
    "type": "Feature",
    "geometry": {
       "type": "Point",
       "coordinates":  [ -87.580715,41.795212 ]
    },
    "properties": {
    "ID":247,
    "Station Name":"Shore Dr & 55th St",
    "Address":"Shore Dr & 55th St",
    "Total Docks":17,
    "Docks in Service":16,
    "Status":"In Service",
    "Location":"(41.795212, -87.580715)"
    }
  },
  {
    "type": "Feature",
    "geometry": {
       "type": "Point",
       "coordinates":  [ -87.639474,41.870257 ]
    },
    "properties": {
    "ID":414,
    "Station Name":"Canal St & Taylor St",
    "Address":"Canal St & Taylor St",
    "Total Docks":15,
    "Docks in Service":15,
    "Status":"In Service",
    "Location":"(41.870257, -87.639474)"
    }
  },
  {
    "type": "Feature",
    "geometry": {
       "type": "Point",
       "coordinates":  [ -87.715405838,41.854204313 ]
    },
    "properties": {
    "ID":438,
    "Station Name":"Central Park Ave & Ogden Ave",
    "Address":"Central Park Ave & Ogden Ave",
    "Total Docks":15,
    "Docks in Service":15,
    "Status":"In Service",
    "Location":"(41.85420431327, -87.7154058381)"
    }
  },
  {
    "type": "Feature",
    "geometry": {
       "type": "Point",
       "coordinates":  [ -87.715910308,41.844566849 ]
    },
    "properties": {
    "ID":443,
    "Station Name":"Millard Ave & 26th St",
    "Address":"Millard Ave & 26th St",
    "Total Docks":11,
    "Docks in Service":11,
    "Status":"In Service",
    "Location":"(41.84456684891, -87.7159103081)"
    }
  },
  {
    "type": "Feature",
    "geometry": {
       "type": "Point",
       "coordinates":  [ -87.649993,41.952833 ]
    },
    "properties": {
    "ID":256,
    "Station Name":"Broadway & Sheridan Rd",
    "Address":"Broadway & Sheridan Rd",
    "Total Docks":15,
    "Docks in Service":14,
    "Status":"In Service",
    "Location":"(41.952833, -87.649993)"
    }
  },
  {
    "type": "Feature",
    "geometry": {
       "type": "Point",
       "coordinates":  [ -87.695295923,41.844040031 ]
    },