{
   "type": "FeatureCollection",
   "features": [
  {
    "type": "Feature",
    "geometry": {
       "type": "Point",
       "coordinates":  [ -88.1698,41.9797 ]
    },
    "properties": {
    "MatchType":"WeakName",
    "NumMatch":"Approx",
    "X":1168427.011,
    "Y":1940926.452,
    "LABEL":"Kindred- Lakeshore",
    "FACILITY":"Kindred Hospital - Chicago Lakeshore",
    "ADDRESS":"6130 N. Sheridan",
    "CITY":"Chicago",
    "State":"IL",
    "COMMONNAME":"Kindred Hospital - Chicago Lakeshore",
    "Service_Type":"HOSPITAL",
    "TYPE2":"NONPROFIT",
    "PARENTORG":"Kindred Healthcare",
    "USE":"Hospitals",
    "ZIP":60660,
    "WARD":48,
    "TRACT":30100,
    "AREA_NUMBE":77,
    "COMMUNITY":"EDGEWATER"
    }
  },
  {
    "type": "Feature",
    "geometry": {
       "type": "Point",
       "coordinates":  [ -87.6496,41.9227 ]
    },
    "properties": {
    "MatchType":"MatchToZip",
    "NumMatch":"NoMatch",
    "X":1171002.449,
    "Y":1916046.01,
    "LABEL":"Children's",
    "FACILITY":"Children's Memorial Hospital",
    "ADDRESS":"2300 Children's Plaza",
    "CITY":"Chicago",
    "State":"IL",
    "COMMONNAME":"Children's Memorial Hospital",
    "Service_Type":"HOSPITAL",
    "TYPE2":"NONPROFIT",
    "PARENTORG":"Children's Memorial Hospital",
    "USE":"Hospitals",
    "ZIP":60614,
    "WARD":43,
    "TRACT":71200,
    "AREA_NUMBE":7,
    "COMMUNITY":"LINCOLN PARK"
    }
  },
  {
    "type": "Feature",
    "geometry": {
       "type": "Point",
       "coordinates":  [ -87.63300323,41.77874756 ]
    },
    "properties": {
    "MatchType":"ExactMatch",
    "NumMatch":"Rooftop",
    "X":1175254.006,
    "Y":1862670.662,
    "LABEL":"St Bernard",
    "FACILITY":"St Bernard Hospital",
    "ADDRESS":"326 W. 64th Street",
    "CITY":"Chicago",
    "State":"IL",
    "COMMONNAME":"St. Bernard Hospital",
    "Service_Type":"HOSPITAL",
    "TYPE2":"NONPROFIT",
    "PARENTORG":"St. Bernard Hospital",
    "USE":"Hospitals",
    "ZIP":60621,
    "WARD":20,
    "TRACT":680900,
    "AREA_NUMBE":68,
    "COMMUNITY":"ENGLEWOOD"
    }
  },
  {
    "type": "Feature",
    "geometry": {
       "type": "Point",
       "coordinates":  [ -87.69111633,41.76909256 ]
    },
    "properties": {
    "MatchType":"ExactMatch",
    "NumMatch":"Rooftop",
    "X":1159091.55,
    "Y":1859131.693,
    "LABEL":"Holy Cross",
    "FACILITY":"Holy Cross Hospital",
    "ADDRESS":"2701 W. 68th Street",
    "CITY":"Chicago",
    "State":"IL",
    "COMMONNAME":"Holy Cross Hospital",
    "Service_Type":"HOSPITAL",
    "TYPE2":"RELIGIOUS",
    "PARENTORG":"Holy Cross Hospital",
    "USE":"Hospitals",
    "ZIP":60629,
    "WARD":15,
    "TRACT":660900,
    "AREA_NUMBE":66,
    "COMMUNITY":"CHICAGO LAWN"
    }
  },
  {
    "type": "Feature",
    "geometry": {
       "type": "Point",
       "coordinates":  [ -87.8905,42.1932 ]
    },
    "properties": {
    "MatchType":"WeakName",
    "NumMatch":"Approx",
    "X":1169801.369,
    "Y":1920306.523,
    "LABEL":"IL Masonic",
    "FACILITY":"Advocate Illinois Masonic Medical Center",
    "ADDRESS":"836 W. Wellington",
    "CITY":"Chicago",
    "State":"IL",
    "COMMONNAME":"Advocate Illinois Masonic Med Ctr",
    "Service_Type":"HOSPITAL",
    "TYPE2":"NONPROFIT",
    "PARENTORG":"Advocate Health Care",
    "USE":"Hospitals",
    "ZIP":60657,
    "WARD":44,
    "TRACT":63000,
    "AREA_NUMBE":6,
    "COMMUNITY":"LAKE VIEW"
    }
  },
  {
    "type": "Feature",
    "geometry": {
       "type": "Point",
       "coordinates":  [ -87.63771057,41.93497467 ]
    },
    "properties": {
    "MatchType":"ExactMatch",
    "NumMatch":"Rooftop",
    "X":1173643.692,
    "Y":1919212.347,
    "LABEL":"St Joseph",
    "FACILITY":"Saint Joseph Hospital",
    "ADDRESS":"2900 N. Lake Shore Drive",
    "CITY":"Chicago",
    "State":"IL",
    "COMMONNAME":"St. Joseph Hospital",
    "Service_Type":"HOSPITAL",
    "TYPE2":"RELIGIOUS",
    "PARENTORG":"Resurrection Health Care",
    "USE":"Hospitals",
    "ZIP":60657,
    "WARD":44,
    "TRACT":63300,
    "AREA_NUMBE":6,
    "COMMUNITY":"LAKE VIEW"
    }
  },
  {
    "type": "Feature",
    "geometry": {
       "type": "Point",
       "coordinates":  [ -87.62437439,41.69321442 ]
    },
    "properties": {
    "MatchType":"ExactMatch",
    "NumMatch":"Rooftop",
    "X":1177694.542,
    "Y":1831236.566,
    "LABEL":"Roseland",
    "FACILITY":"Roseland Community Hospital",
    "ADDRESS":"45 W. 111th Street",
    "CITY":"Chicago",
    "State":"IL",
    "COMMONNAME":"Roseland Community Hospital",
    "Service_Type":"HOSPITAL",
    "TYPE2":"NONPROFIT",
    "PARENTORG":"Roseland Community Hospital",
    "USE":"Hospitals",
    "ZIP":60628,
    "WARD":34,
    "TRACT":491300,
    "AREA_NUMBE":49,
    "COMMUNITY":"ROSELAND"
    }
  },
  {
    "type": "Feature",
    "geometry": {
       "type": "Point",
       "coordinates":  [ -87.56738281,41.72689819 ]
    },
    "properties": {
    "MatchType":"ExactMatch",
    "NumMatch":"Rooftop",
    "X":1193491.059,
    "Y":1844003.401,
    "LABEL":"Trinity",
    "FACILITY":"Advocate Trinity Hospital",
    "ADDRESS":"2320 E.  93rd Street",
    "CITY":"Chicago",
    "State":"IL",
    "COMMONNAME":"Advocate Trinity Hospital",
    "Service_Type":"HOSPITAL",
    "TYPE2":"NONPROFIT",
    "PARENTORG":"Advocate Health Care",
    "USE":"Hospitals",
    "ZIP":60617,
    "WARD":7,
    "TRACT":480400,
    "AREA_NUMBE":48,
    "COMMUNITY":"CALUMET HEIGHTS"
    }
  },
  {
    "type": "Feature",
    "geometry": {
       "type": "Point",
       "coordinates":  [ -87.5688,41.7497898 ]
    },
    "properties": {
    "MatchType":"WeakName",
    "NumMatch":"Exact",
    "X":1192764.496,
    "Y":1852230.406,
    "LABEL":"South Shore",
    "FACILITY":"South Shore Hospital",
    "ADDRESS":"8012 S. Crandon",
    "CITY":"Chicago",
    "State":"IL",
    "COMMONNAME":"South Shore Hospital",
    "Service_Type":"HOSPITAL",
    "TYPE2":"NONPROFIT",
    "PARENTORG":"South Shore Hospital",
    "USE":"Hospitals",
    "ZIP":60617,
    "WARD":8,
    "TRACT":460500,
    "AREA_NUMBE":46,
    "COMMUNITY":"SOUTH CHICAGO"
    }
  },
  {
    "type": "Feature",
    "geometry": {
       "type": "Point",
       "coordinates":  [ -87.5659,41.7634 ]
    },
    "properties": {
    "MatchType":"MatchToZip",
    "NumMatch":"NoMatch",
    "X":1192080.038,
    "Y":1862386.226,
    "LABEL":"La Rabida",
    "FACILITY":"La Rabida Children's Hospital",
    "ADDRESS":"East 65th St. at Lake Michigan",
    "CITY":"Chicago",
    "State":"IL",
    "COMMONNAME":"La Rabida Hospital",
    "Service_Type":"HOSPITAL",
    "TYPE2":"NONPROFIT",
    "PARENTORG":"La Rabida Children's Hospital",
    "USE":"Hospitals",
    "ZIP":60649,
    "WARD":5,
    "TRACT":421100,
    "AREA_NUMBE":42,
    "COMMUNITY":"WOODLAWN"
    }
  },
  {
    "type": "Feature",
    "geometry": {
       "type": "Point",
       "coordinates":  [ -87.5659,41.7634 ]
    },
    "properties": {
    "MatchType":"MatchToZip",
    "NumMatch":"NoMatch",
    "X":1188399.939,
    "Y":1855087.527,
    "LABEL":"Jackson Pk",
    "FACILITY":"Jackson Park Hospital & Medical Center",
    "ADDRESS":"7531 S. Stony Island",
    "CITY":"Chicago",
    "State":"IL",
    "COMMONNAME":"Jackson Park Hospital",
    "Service_Type":"HOSPITAL",
    "TYPE2":"NONPROFIT",
    "PARENTORG":"Jackson Park Hospital & Medical Center",
    "USE":"Hospitals",
    "ZIP":60649,
    "WARD":8,
    "TRACT":431100,
    "AREA_NUMBE":43,
    "COMMUNITY":"SOUTH SHORE"
    }
  },
  {
    "type": "Feature",
    "geometry": {
       "type": "Point",
       "coordinates":  [ -88.0458,42.0136 ]
    },
    "properties": {
    "MatchType":"WeakName",
    "NumMatch":"Approx",
    "X":1157032.343,
    "Y":1934151.489,
    "LABEL":"Swedish",
    "FACILITY":"Swedish Covenant Hospital",
    "ADDRESS":"5145 N. California",
    "CITY":"Chicago",
    "State":"IL",
    "COMMONNAME":"Swedish Covenant Hospital",
    "Service_Type":"HOSPITAL",
    "TYPE2":"NONPROFIT",
    "PARENTORG":"Swedish Covenant Hospital",
    "USE":"Hospitals",
    "ZIP":60625,
    "WARD":40,
    "TRACT":40200,
    "AREA_NUMBE":4,
    "COMMUNITY":"LINCOLN SQUARE"
    }
  },
  {
    "type": "Feature",
    "geometry": {
       "type": "Point",
       "coordinates":  [ -87.6395,41.9601 ]
    },
    "properties": {
    "MatchType":"WeakName",
    "NumMatch":"Approx",
    "X":1158413.669,
    "Y":1929236.285,
    "LABEL":"Kindred-North",
    "FACILITY":"Kindred Hospital - Chicago North",
    "ADDRESS":"2544 W. Montrose",
    "CITY":"Chicago",
    "State":"IL",
    "COMMONNAME":"Kindred Hospital - Chicago North",
    "Service_Type":"HOSPITAL",
    "TYPE2":"RELIGIOUS",
    "PARENTORG":"Kindred Healthcare",
    "USE":"Hospitals",
    "ZIP":60625,
    "WARD":47,
    "TRACT":40800,
    "AREA_NUMBE":4,
    "COMMUNITY":"LINCOLN SQUARE"
    }
  },
  {
    "type": "Feature",
    "geometry": {
       "type": "Point",
       "coordinates":  [ -87.8845,41.5654 ]
    },
    "properties": {
    "MatchType":"WeakName",
    "NumMatch":"Approx",
    "X":1183576.173,
    "Y":1866301.922,
    "LABEL":"U of C",
    "FACILITY":"University of Chicago Hospital",
    "ADDRESS":"5841 S. Maryland",
    "CITY":"Chicago",
    "State":"IL",
    "COMMONNAME":"Univ. of Chicago Hospital",
    "Service_Type":"HOSPITAL",
    "TYPE2":"NONPROFIT",
    "PARENTORG":"The University of Chicago Hospitals & Health",
    "USE":"Hospitals",
    "ZIP":60637,
    "WARD":5,
    "TRACT":411400,
    "AREA_NUMBE":41,
    "COMMUNITY":"HYDE PARK"
    }
  },
  {
    "type": "Feature",
    "geometry": {
       "type": "Point",
       "coordinates":  [ -87.6125,41.8022 ]
    },
    "properties": {
    "MatchType":"ExactMatch",
    "NumMatch":"Exact",
    "X":1180463.601,
    "Y":1871498.838,
    "LABEL":"Provident",
    "FACILITY":"Provident Hospital of Cook County",
    "ADDRESS":"500 E. 51st Street",
    "CITY":"Chicago",
    "State":"IL",
    "COMMONNAME":"Cook County - Provident Hospital",
    "Service_Type":"HOSPITAL",
    "TYPE2":"COOK",
    "PARENTORG":"Cook County Bureau of Health Services",
    "USE":"Hospitals",
    "ZIP":60615,
    "WARD":3,
    "TRACT":381900,
    "AREA_NUMBE":38,
    "COMMUNITY":"GRAND BOULEVARD"
    }
  },
  {
    "type": "Feature",
    "geometry": {
       "type": "Point",
       "coordinates":  [ -87.6231,41.8183 ]
    },
    "properties": {
    "MatchType":"ExactMatch",
    "NumMatch":"Approx",
    "X":1178252.849,
    "Y":1887563.106,
    "LABEL":"Mercy",
    "FACILITY":"Mercy Hospital and Medical Center",
    "ADDRESS":"2525 S. Michigan",
    "CITY":"Chicago",
    "State":"IL",
    "COMMONNAME":"Mercy Hospital",
    "Service_Type":"HOSPITAL",
    "TYPE2":"CORP",
    "PARENTORG":"Mercy Hospital and Medical Center",
    "USE":"Hospitals",
    "ZIP":60616,
    "WARD":2,
    "TRACT":330500,
    "AREA_NUMBE":33,
    "COMMUNITY":"NEAR SOUTH SIDE"
    }
  },
  {
    "type": "Feature",
    "geometry": {
       "type": "Point",
       "coordinates":  [ -87.69683075,41.85527039 ]
    },
    "properties": {
    "MatchType":"ExactMatch",
    "NumMatch":"Rooftop",
    "X":1157293.113,
    "Y":1890454.378,
    "LABEL":"St Anthony",
    "FACILITY":"Saint Anthony Hospital",
    "ADDRESS":"2875 W. 19th Street",
    "CITY":"Chicago",
    "State":"IL",
    "COMMONNAME":"St. Anthony Hospital",
    "Service_Type":"HOSPITAL",
    "TYPE2":"NONPROFIT",
    "PARENTORG":"Ascension Health",
    "USE":"Hospitals",
    "ZIP":60623,
    "WARD":12,
    "TRACT":300200,
    "AREA_NUMBE":30,
    "COMMUNITY":"SOUTH LAWNDALE"
    }
  },
  {
    "type": "Feature",
    "geometry": {
       "type": "Point",
       "coordinates":  [ -87.667,41.8027694 ]
    },
    "properties": {
    "MatchType":"WeakName",
    "NumMatch":"Exact",
    "X":1164629.069,
    "Y":1933218.835,
    "LABEL":"Methodist",
    "FACILITY":"Methodist Hospital of Chicago",
    "ADDRESS":"5025 N. Paulina",
    "CITY":"Chicago",
    "State":"IL",
    "COMMONNAME":"Methodist Hospital",
    "Service_Type":"HOSPITAL",
    "TYPE2":"NONPROFIT",
    "PARENTORG":"Methodist Hospital of Chicago",
    "USE":"Hospitals",
    "ZIP":60640,
    "WARD":47,
    "TRACT":31000,
    "AREA_NUMBE":3,
    "COMMUNITY":"UPTOWN"
    }
  },
  {
    "type": "Feature",
    "geometry": {
       "type": "Point",
       "coordinates":  [ -87.6505661,41.97025299 ]
    },
    "properties": {
    "MatchType":"ExactMatch",
    "NumMatch":"Rooftop",
    "X":1169921.66,
    "Y":1932501.493,
    "LABEL":"Lakeshore",
    "FACILITY":"Chicago Lakeshore Hospital",
    "ADDRESS":"4840 N. Marine Drive",
    "CITY":"Chicago",
    "State":"IL",
    "COMMONNAME":"Chicago Lakeshore Hospital",
    "Service_Type":"HOSPITAL",
    "TYPE2":"CORP",
    "PARENTORG":"Aurora Health Care",
    "USE":"Hospitals",
    "ZIP":60640,
    "WARD":48,
    "TRACT":31300,
    "AREA_NUMBE":3,
    "COMMUNITY":"UPTOWN"
    }
  },
  {
    "type": "Feature",
    "geometry": {
       "type": "Point",
       "coordinates":  [ -87.64949036,41.96652985 ]
    },
    "properties": {
    "MatchType":"ExactMatch",
    "NumMatch":"Rooftop",
    "X":1170190.744,
    "Y":1931249.64,
    "LABEL":"Weiss",
    "FACILITY":"Louis A. Weiss Memorial Hospital",
    "ADDRESS":"4646 N. Marine Drive",
    "CITY":"Chicago",
    "State":"IL",
    "COMMONNAME":"Weiss Memorial Hospital",
    "Service_Type":"HOSPITAL",
    "TYPE2":"NONPROFIT",
    "PARENTORG":"The University of Chicago Hospitals & Health",
    "USE":"Hospitals",
    "ZIP":60640,
    "WARD":46,
    "TRACT":31400,
    "AREA_NUMBE":3,
    "COMMUNITY":"UPTOWN"
    }
  },
  {
    "type": "Feature",
    "geometry": {
       "type": "Point",
       "coordinates":  [ -87.6521,41.9545 ]
    },
    "properties": {
    "MatchType":"ExactMatch",
    "NumMatch":"Exact",
    "X":1169657.895,
    "Y":1926940.276,
    "LABEL":"Thorek",
    "FACILITY":"Thorek Hospital and Medical Center",
    "ADDRESS":"850 W. Irving Park Road",
    "CITY":"Chicago",
    "State":"IL",
    "COMMONNAME":"Thorek Hospital",
    "Service_Type":"HOSPITAL",
    "TYPE2":"NONPROFIT",
    "PARENTORG":"Thorek Hospital and Medical Center",
    "USE":"Hospitals",
    "ZIP":60613,
    "WARD":46,
    "TRACT":32100,
    "AREA_NUMBE":3,
    "COMMUNITY":"UPTOWN"
    }
  },
  {
    "type": "Feature",
    "geometry": {
       "type": "Point",
       "coordinates":  [ -87.874725,41.8728 ]
    },
    "properties": {
    "MatchType":"WeakName",
    "NumMatch":"Exact",
    "X":1153413.446,
    "Y":1897813,
    "LABEL":"Bethany",
    "FACILITY":"Advocate Bethany Hospital",
    "ADDRESS":"3435 W. Van Buren",
    "CITY":"Chicago",
    "State":"IL",
    "COMMONNAME":"Advocate Bethany Hospital",
    "Service_Type":"HOSPITAL",
    "TYPE2":"NONPROFIT",
    "PARENTORG":"Advocate Health Care",
    "USE":"Hospitals",
    "ZIP":60624,
    "WARD":28,
    "TRACT":271400,
    "AREA_NUMBE":27,
    "COMMUNITY":"EAST GARFIELD PARK"
    }
  },
  {
    "type": "Feature",
    "geometry": {
       "type": "Point",
       "coordinates":  [ -87.8435,41.8725 ]
    },
    "properties": {
    "MatchType":"WeakName",
    "NumMatch":"Approx",
    "X":1164921.208,
    "Y":1897555.409,
    "LABEL":"Rush",
    "FACILITY":"Rush University Medical Center",
    "ADDRESS":"1653 W. Congress",
    "CITY":"Chicago",
    "State":"IL",
    "COMMONNAME":"Rush-Pres-St. Luke's Med Ctr",
    "Service_Type":"HOSPITAL",
    "TYPE2":"NONPROFIT",
    "PARENTORG":"Rush-Presbyterian-St. Luke's Medical Center",
    "USE":"Hospitals",
    "ZIP":60612,
    "WARD":2,
    "TRACT":282500,
    "AREA_NUMBE":28,
    "COMMUNITY":"NEAR WEST SIDE"
    }
  },
  {
    "type": "Feature",
    "geometry": {
       "type": "Point",
       "coordinates":  [ -87.6766,41.87125341 ]
    },
    "properties": {
    "MatchType":"WeakName",
    "NumMatch":"Exact",
    "X":1162962.842,
    "Y":1895857.389,
    "LABEL":"VA-Brown",
    "FACILITY":"Jesse Brown Department of Veteran's Affairs Medical Center",
    "ADDRESS":"820 S. Damen",
    "CITY":"Chicago",
    "State":"IL",
    "COMMONNAME":"VA - Jesse Brown Med Ctr",
    "Service_Type":"HOSPITAL",
    "TYPE2":"FEDERAL",
    "PARENTORG":"Department of Veterans Affairs",
    "USE":"Hospitals",
    "ZIP":60612,
    "WARD":2,
    "TRACT":282900,
    "AREA_NUMBE":28,
    "COMMUNITY":"NEAR WEST SIDE"
    }
  },
  {
    "type": "Feature",
    "geometry": {
       "type": "Point",
       "coordinates":  [ -87.8558,41.8711 ]
    },
    "properties": {
    "MatchType":"DirectionPrefixRemoved",
    "NumMatch":"Exact",
    "X":1164177.654,
    "Y":1897267.821,
    "LABEL":"Stroger",
    "FACILITY":"John H. Stroger, Jr. Hospital of Cook County",
    "ADDRESS":"1901 W. Harrison",
    "CITY":"Chicago",
    "State":"IL",
    "COMMONNAME":"Cook County - Stroger Hospital",
    "Service_Type":"HOSPITAL",
    "TYPE2":"COOK",
    "PARENTORG":"Cook County Bureau of Health Services",
    "USE":"Hospitals",
    "ZIP":60612,
    "WARD":2,
    "TRACT":282900,
    "AREA_NUMBE":28,
    "COMMUNITY":"NEAR WEST SIDE"
    }
  },
  {
    "type": "Feature",
    "geometry": {
       "type": "Point",
       "coordinates":  [ -88.0572,41.7657 ]
    },
    "properties": {
    "MatchType":"WeakName",
    "NumMatch":"Approx",
    "X":1164683.985,
    "Y":1895768.18,
    "LABEL":"U of I at Chicago",
    "FACILITY":"University of Illinois at Chicago Hospital",
    "ADDRESS":"1740 W. Taylor",
    "CITY":"Chicago",
    "State":"IL",
    "COMMONNAME":"UIC Hospital",
    "Service_Type":"HOSPITAL",
    "TYPE2":"STATE",
    "PARENTORG":"University of Illinois at Chicago",
    "USE":"Hospitals",
    "ZIP":60612,
    "WARD":2,
    "TRACT":282900,
    "AREA_NUMBE":28,
    "COMMUNITY":"NEAR WEST SIDE"
    }
  },
  {
    "type": "Feature",
    "geometry": {
       "type": "Point",
       "coordinates":  [ -88.041,42.0113 ]
    },
    "properties": {
    "MatchType":"WeakName",
    "NumMatch":"Exact",
    "X":1158181.21,
    "Y":1892444.941,
    "LABEL":"Mount Sinai",
    "FACILITY":"Mount Sinai Hospital & Medical Center",
    "ADDRESS":"1500 S California",
    "CITY":"Chicago",
    "State":"IL",
    "COMMONNAME":"Mount Sinai Hospital",
    "Service_Type":"HOSPITAL",
    "TYPE2":"RELIGIOUS",
    "PARENTORG":"Sinai Health Systems",
    "USE":"Hospitals",
    "ZIP":60608,
    "WARD":28,
    "TRACT":291500,
    "AREA_NUMBE":29,
    "COMMUNITY":"NORTH LAWNDALE"
    }
  },
  {
    "type": "Feature",
    "geometry": {
       "type": "Point",
       "coordinates":  [ -88.0417,42.0127 ]
    },
    "properties": {
    "MatchType":"WeakName",
    "NumMatch":"Approx",
    "X":1158126.94,
    "Y":1893036.946,
    "LABEL":"Schwab",
    "FACILITY":"Schwab Rehabilitation Hospital",
    "ADDRESS":"1401 S. California",
    "CITY":"Chicago",
    "State":"IL",
    "COMMONNAME":"Schwab Rehab. Hospital",
    "Service_Type":"HOSPITAL",
    "TYPE2":"NONPROFIT",
    "PARENTORG":"Sinai Health Systems",
    "USE":"Hospitals",
    "ZIP":60608,
    "WARD":28,
    "TRACT":291500,
    "AREA_NUMBE":29,
    "COMMUNITY":"NORTH LAWNDALE"
    }
  },
  {
    "type": "Feature",
    "geometry": {
       "type": "Point",
       "coordinates":  [ -87.6986,41.868925 ]
    },
    "properties": {
    "MatchType":"WeakName",
    "NumMatch":"Exact",
    "X":1156751.12,
    "Y":1907080.26,
    "LABEL":"Norwegian American",
    "FACILITY":"Norwegian American Hospital",
    "ADDRESS":"1044 N. Francisco",
    "CITY":"Chicago",
    "State":"IL",
    "COMMONNAME":"Norwegian American Hospital",
    "Service_Type":"HOSPITAL",
    "TYPE2":"NONPROFIT",
    "PARENTORG":"Norwegian American Hospital",
    "USE":"Hospitals",
    "ZIP":60622,
    "WARD":26,
    "TRACT":240900,
    "AREA_NUMBE":24,
    "COMMUNITY":"WEST TOWN"
    }
  },
  {
    "type": "Feature",
    "geometry": {
       "type": "Point",
       "coordinates":  [ -87.6851,41.8637 ]
    },
    "properties": {
    "MatchType":"WeakName",
    "NumMatch":"Approx",
    "X":1160600.677,
    "Y":1909570.637,
    "LABEL":"Sts. Mary and Eliz MC-St. Eliz",
    "FACILITY":"Sts Mary and Elizabeth Medical Center-St. Elizabeth",
    "ADDRESS":"1431 N. Claremont",
    "CITY":"Chicago",
    "State":"IL",
    "COMMONNAME":"Sts Mary and Elizabeth Medical Center-St. Elizabeth",
    "Service_Type":"HOSPITAL",
    "TYPE2":"RELIGIOUS",
    "PARENTORG":"Resurrection Health Care",
    "USE":"Hospitals",
    "ZIP":60622,
    "WARD":1,
    "TRACT":241200,
    "AREA_NUMBE":24,
    "COMMUNITY":"WEST TOWN"
    }
  },
  {
    "type": "Feature",
    "geometry": {
       "type": "Point",
       "coordinates":  [ -87.6833,41.9031 ]
    },
    "properties": {
    "MatchType":"KnownAlternateName",
    "NumMatch":"Exact",
    "X":1161193.36,
    "Y":1907748.939,
    "LABEL":"Sts. Mary and Eliz MC-St. Mary",
    "FACILITY":"Sts Mary and Elizabeth Medical Center-St. Mary",
    "ADDRESS":"2233 W. Division",
    "CITY":"Chicago",
    "State":"IL",
    "COMMONNAME":"Sts Mary and Elizabeth Medical Center-St. Mary",
    "Service_Type":"HOSPITAL",
    "TYPE2":"NONPROFIT",
    "PARENTORG":"Resurrection Health Care",
    "USE":"Hospitals",
    "ZIP":60622,
    "WARD":32,
    "TRACT":242400,
    "AREA_NUMBE":24,
    "COMMUNITY":"WEST TOWN"
    }
  },
  {
    "type": "Feature",
    "geometry": {
       "type": "Point",
       "coordinates":  [ -87.76364899,41.8721199 ]
    },
    "properties": {
    "MatchType":"ExactMatch",
    "NumMatch":"Rooftop",
    "X":1139426.897,
    "Y":1896515.464,
    "LABEL":"Loretto",
    "FACILITY":"Loretto Hospital",
    "ADDRESS":"645 S. Central Avenue",
    "CITY":"Chicago",
    "State":"IL",
    "COMMONNAME":"Loretto Hospital",
    "Service_Type":"HOSPITAL",
    "TYPE2":"NONPROFIT",
    "PARENTORG":"Loretto Hospital",
    "USE":"Hospitals",
    "ZIP":60644,
    "WARD":29,
    "TRACT":252400,
    "AREA_NUMBE":25,
    "COMMUNITY":"AUSTIN"
    }
  },
  {
    "type": "Feature",
    "geometry": {
       "type": "Point",
       "coordinates":  [ -87.7533,41.6494 ]
    },
    "properties": {
    "MatchType":"DirectionPrefixRemoved",
    "NumMatch":"Approx",
    "X":1151195.177,
    "Y":1903287.801,
    "LABEL":"Hartgrove",
    "FACILITY":"Hartgrove Hospital",
    "ADDRESS":"520 N.Ridgeway",
    "CITY":"Chicago",
    "State":"IL",
    "COMMONNAME":"Hartgrove Hospital",
    "Service_Type":"HOSPITAL",
    "TYPE2":"NONPROFIT",
    "PARENTORG":"Universal Health Services, Inc.",
    "USE":"Hospitals",
    "ZIP":60624,
    "WARD":27,
    "TRACT":231500,
    "AREA_NUMBE":23,
    "COMMUNITY":"HUMBOLDT PARK"
    }
  },
  {
    "type": "Feature",
    "geometry": {
       "type": "Point",
       "coordinates":  [ -87.885,41.5812 ]
    },
    "properties": {
    "MatchType":"DirectionPrefixRemoved",
    "NumMatch":"Approx",
    "X":1154505.065,
    "Y":1903317.697,
    "LABEL":"Sacred Heart",
    "FACILITY":"Sacred Heart Hospital",
    "ADDRESS":"3240 W. Franklin",
    "CITY":"Chicago",
    "State":"IL",
    "COMMONNAME":"Sacred Heart Hospital",
    "Service_Type":"HOSPITAL",
    "TYPE2":"NONPROFIT",
    "PARENTORG":"Sacred Heart Hospital",
    "USE":"Hospitals",
    "ZIP":60624,
    "WARD":27,
    "TRACT":231600,
    "AREA_NUMBE":23,
    "COMMUNITY":"HUMBOLDT PARK"
    }
  },
  {
    "type": "Feature",
    "geometry": {
       "type": "Point",
       "coordinates":  [ -87.8659,41.944 ]
    },
    "properties": {
    "MatchType":"WeakName",
    "NumMatch":"Approx",
    "X":1138095.238,
    "Y":1923225.81,
    "LABEL":"Our Lady of Resurrection",
    "FACILITY":"Our Lady of Resurrection Medical Center",
    "ADDRESS":"5645 W. Addison",
    "CITY":"Chicago",
    "State":"IL",
    "COMMONNAME":"Our Lady of Resurrection Med Ctr",
    "Service_Type":"HOSPITAL",
    "TYPE2":"NONPROFIT",
    "PARENTORG":"Resurrection Health Care",
    "USE":"Hospitals",
    "ZIP":60634,
    "WARD":38,
    "TRACT":151200,
    "AREA_NUMBE":15,
    "COMMUNITY":"PORTAGE PARK"
    }
  },
  {
    "type": "Feature",
    "geometry": {
       "type": "Point",
       "coordinates":  [ -87.6907,41.9426 ]
    },
    "properties": {
    "MatchType":"DirectionPrefixRemoved",
    "NumMatch":"Approx",
    "X":1148681.978,
    "Y":1921396.285,
    "LABEL":"Kindred-Central",
    "FACILITY":"Kindred Hospital - Chicago Central",
    "ADDRESS":"4058 W. Melrose",
    "CITY":"Chicago",
    "State":"IL",
    "COMMONNAME":"Kindred Hospital - Chicago Central",
    "Service_Type":"HOSPITAL",
    "TYPE2":"NONPROFIT",
    "PARENTORG":"Kindred Healthcare",
    "USE":"Hospitals",
    "ZIP":60641,
    "WARD":31,
    "TRACT":161300,
    "AREA_NUMBE":16,
    "COMMUNITY":"IRVING PARK"
    }
  },
  {
    "type": "Feature",
    "geometry": {
       "type": "Point",
       "coordinates":  [ -87.79949951,41.95467377 ]
    },
    "properties": {
    "MatchType":"ExactMatch",
    "NumMatch":"Rooftop",
    "X":1129262.473,
    "Y":1926724.248,
    "LABEL":"Read Mental HC",
    "FACILITY":"Chicago Read Mental Health Center",
    "ADDRESS":"4200 N. Oak Park Avenue",
    "CITY":"Chicago",
    "State":"IL",
    "COMMONNAME":"Chicago Read Mental Health Ctr",
    "Service_Type":"PSYCHIATRIC HOSPITAL",
    "TYPE2":"STATE",
    "PARENTORG":"Chicago Read Mental Health Center",
    "USE":"Hospitals",
    "ZIP":60634,
    "WARD":38,
    "TRACT":170100,
    "AREA_NUMBE":17,
    "COMMUNITY":"DUNNING"
    }
  },
  {
    "type": "Feature",
    "geometry": {
       "type": "Point",
       "coordinates":  [ -87.79299927,41.91996002 ]
    },
    "properties": {
    "MatchType":"ExactMatch",
    "NumMatch":"Rooftop",
    "X":1131260.86,
    "Y":1913889.56,
    "LABEL":"Shriners",
    "FACILITY":"Shriners Hospital for Children",
    "ADDRESS":"2211 N. Oak Park Avenue",
    "CITY":"Chicago",
    "State":"IL",
    "COMMONNAME":"Shriners Hospital",
    "Service_Type":"HOSPITAL",
    "TYPE2":"RELIGIOUS",
    "PARENTORG":"Shriners Hospitals for Children",
    "USE":"Hospitals",
    "ZIP":60635,
    "WARD":36,
    "TRACT":180300,
    "AREA_NUMBE":18,
    "COMMUNITY":"MONTCLARE"
    }
  },
  {
    "type": "Feature",
    "geometry": {
       "type": "Point",
       "coordinates":  [ -87.8648,42.0174 ]
    },
    "properties": {
    "MatchType":"WeakName",
    "NumMatch":"Approx",
    "X":1125484.101,
    "Y":1938328.118,
    "LABEL":"Resurrection",
    "FACILITY":"Resurrection Medical Center",
    "ADDRESS":"7435 W. Talcott",
    "CITY":"Chicago",
    "State":"IL",
    "COMMONNAME":"Resurrection Med Ctr",
    "Service_Type":"HOSPITAL",
    "TYPE2":"CORP",
    "PARENTORG":"Resurrection Health Care",
    "USE":"Hospitals",
    "ZIP":60631,
    "WARD":41,
    "TRACT":100400,
    "AREA_NUMBE":10,
    "COMMUNITY":"NORWOOD PARK"
    }
  },
  {
    "type": "Feature",
    "geometry": {
       "type": "Point",
       "coordinates":  [ -87.6352102,41.8946 ]
    },
    "properties": {
    "MatchType":"WeakName",
    "NumMatch":"Exact",
    "X":1178048.287,
    "Y":1904994.52,
    "LABEL":"Northwestern",
    "FACILITY":"Northwestern Memorial Hospital",
    "ADDRESS":"251 E. Huron",
    "CITY":"Chicago",
    "State":"IL",
    "COMMONNAME":"Northwestern Memorial Hospital",
    "Service_Type":"HOSPITAL",
    "TYPE2":"NONPROFIT",
    "PARENTORG":"Northwestern Memorial Hospital",
    "USE":"Hospitals",
    "ZIP":60611,
    "WARD":42,
    "TRACT":81400,
    "AREA_NUMBE":8,
    "COMMUNITY":"NEAR NORTH SIDE"
    }
  },
  {
    "type": "Feature",
    "geometry": {
       "type": "Point",
       "coordinates":  [ -87.78436735,41.8931 ]
    },
    "properties": {
    "MatchType":"DirectionPrefixRemoved",
    "NumMatch":"Exact",
    "X":1178921.419,
    "Y":1905314.952,
    "LABEL":"Rehabilitation Institute",
    "FACILITY":"Rehabilitation Institute of Chicago",
    "ADDRESS":"345 E. Superior",
    "CITY":"Chicago",
    "State":"IL",
    "COMMONNAME":"Rehabilitation Institute",
    "Service_Type":"HOSPITAL",
    "TYPE2":"NONPROFIT",
    "PARENTORG":"Rehabilitation Institute of Chicago",
    "USE":"Hospitals",
    "ZIP":60611,
    "WARD":42,
    "TRACT":81400,
    "AREA_NUMBE":8,
    "COMMUNITY":"NEAR NORTH SIDE"
    }
  },
  {
    "type": "Feature",
    "geometry": {
       "type": "Point",
       "coordinates":  [ -87.6775,41.9631 ]
    },
    "properties": {
    "MatchType":"KnownAlternateName",
    "NumMatch":"Exact",
    "X":1162575.683,
    "Y":1930421.956,
    "LABEL":"ORTHOPEDIC INSTITUTE OF CHICAGO",
    "FACILITY":"Chicago Institute of Neurosurgery and Neuroresearch",
    "ADDRESS":"4501 WINCHESTER AVENUE",
    "CITY":"Chicago",
    "State":"IL",
    "COMMONNAME":"Chicago Institute of Neurosurgery and Neuroresearch",
    "Service_Type":"HOSPITAL",
    "TYPE2":"SPECIALTY",
    "PARENTORG":"Chicago Institute of Neurosurgery and Neuroresearch",
    "USE":"Hospitals",
    "ZIP":60640,
    "WARD":47,
    "TRACT":41000,
    "AREA_NUMBE":4,
    "COMMUNITY":"LINCOLN SQUARE"
    }
  }
]
}